[
  { "id": "provider-san-francisco",  "city": "San Francisco",  "lat": 37.7749,  "lon": -122.4194 },
  { "id": "provider-seattle",        "city": "Seattle",        "lat": 47.6062,  "lon": -122.3321 },
  { "id": "provider-houston",        "city": "Houston",        "lat": 29.7604,  "lon": -95.3698  },
  { "id": "provider-austin",         "city": "Austin",         "lat": 30.2672,  "lon": -97.7431  },
  { "id": "provider-warsaw",         "city": "Warsaw",         "lat": 52.2297,  "lon": 21.0122   },
  { "id": "provider-malaga",         "city": "Málaga",         "lat": 36.7213,  "lon": -4.4214   },
  { "id": "provider-limassol",       "city": "Limassol",       "lat": 34.6786,  "lon": 33.0413   },
  { "id": "provider-washington-dc",  "city": "Washington DC",  "lat": 38.9072,  "lon": -77.0369  },
  { "id": "provider-sheridan",       "city": "Sheridan",       "lat": 44.7972,  "lon": -106.956  },
  { "id": "provider-cairns",         "city": "Cairns",         "lat": -16.9186, "lon": 145.7781  },
  { "id": "provider-mountain-view",  "city": "Mountain View",  "lat": 37.3861,  "lon": -122.0839 },
  { "id": "provider-san-jose",       "city": "San Jose",       "lat": 37.3382,  "lon": -121.8863 },
  { "id": "provider-menlo-park",     "city": "Menlo Park",     "lat": 37.4529,  "lon": -122.1817 },
  { "id": "provider-burlington",     "city": "Burlington",     "lat": 43.3255,  "lon": -79.7990  },
  { "id": "provider-freiburg",       "city": "Freiburg",       "lat": 47.9990,  "lon": 7.8420    }
]
