[
  {
    "id": "adx-abu-dhabi",
    "city": "Abu Dhabi",
    "exchange": "Abu Dhabi Securities Exchange (ADX)",
    "country": "United Arab Emirates",
    "iso2": "AE",
    "tz": "Asia/Dubai",
    "longitude": 54.3773,
    "latitude": 24.4539,
    "hoursTemplate": "gulf-uae",
    "holidaysRef": "adx-abu-dhabi",
    "hemisphere": "NE",
    "marketstack": {
      "benchmark": "adx_general",
      "indexName": "ADX General"
    },
    "hoverColor": "#FFB347"
  },
  {
    "id": "ase-amman",
    "city": "Amman",
    "exchange": "Amman Stock Exchange (ASE)",
    "country": "Jordan",
    "iso2": "JO",
    "tz": "Asia/Amman",
    "longitude": 35.9106,
    "latitude": 31.9454,
    "hoursTemplate": "gulf-jordan",
    "holidaysRef": "ase-amman",
    "hemisphere": "NE",
    "marketstack": {
      "benchmark": "ase",
      "indexName": "ASE General"
    },
    "hoverColor": "#D4A574"
  },
  {
    "id": "asx-sydney",
    "city": "Sydney",
    "exchange": "Australian Securities Exchange (ASX)",
    "country": "Australia",
    "iso2": "AU",
    "tz": "Australia/Sydney",
    "longitude": 151.2093,
    "latitude": -33.8688,
    "hoursTemplate": "australia-standard",
    "holidaysRef": "asx-sydney",
    "hemisphere": "SE",
    "ribbonLabel": "ASX Sydney",
    "marketstack": {
      "benchmark": "asx200",
      "indexName": "ASX 200"
    },
    "hoverColor": "#10B981"
  },
  {
    "id": "athex-athens",
    "city": "Athens",
    "exchange": "Athens Stock Exchange (ATHEX)",
    "country": "Greece",
    "iso2": "GR",
    "tz": "Europe/Athens",
    "longitude": 23.7275,
    "latitude": 37.9838,
    "hoursTemplate": "europe-greece",
    "holidaysRef": "athex-athens",
    "hemisphere": "NE",
    "marketstack": {
      "benchmark": "athex",
      "indexName": "ATHEX Composite"
    },
    "hoverColor": "#60A5FA"
  },
  {
    "id": "b3-sao-paulo",
    "city": "São Paulo",
    "exchange": "B3 — Brasil Bolsa Balcão",
    "country": "Brazil",
    "iso2": "BR",
    "tz": "America/Sao_Paulo",
    "longitude": -46.6333,
    "latitude": -23.5505,
    "hoursTemplate": "americas-brazil",
    "holidaysRef": "b3-sao-paulo",
    "hemisphere": "SW",
    "ribbonLabel": "B3 São Paulo",
    "marketstack": {
      "benchmark": "ibovespa",
      "indexName": "Ibovespa"
    },
    "hoverColor": "#22C55E"
  },
  {
    "id": "bcba-buenos-aires",
    "city": "Buenos Aires",
    "exchange": "Bolsa de Comercio de Buenos Aires (BCBA)",
    "country": "Argentina",
    "iso2": "AR",
    "tz": "America/Argentina/Buenos_Aires",
    "longitude": -58.3816,
    "latitude": -34.6037,
    "hoursTemplate": "latam-argentina",
    "holidaysRef": "bcba-buenos-aires",
    "hemisphere": "SW",
    "marketstack": {
      "benchmark": "merval",
      "indexName": "MERVAL"
    },
    "hoverColor": "#87CEEB"
  },
  {
    "id": "bist-istanbul",
    "city": "Istanbul",
    "exchange": "Borsa Istanbul (BIST)",
    "country": "Türkiye",
    "iso2": "TR",
    "tz": "Europe/Istanbul",
    "longitude": 28.9784,
    "latitude": 41.0082,
    "hoursTemplate": "europe-turkey",
    "holidaysRef": "bist-istanbul",
    "hemisphere": "NE",
    "marketstack": {
      "benchmark": "bist_100",
      "indexName": "BIST 100"
    },
    "hoverColor": "#FF6B6B"
  },
  {
    "id": "bme-madrid",
    "city": "Madrid",
    "exchange": "BME Spanish Exchanges (Madrid)",
    "country": "Spain",
    "iso2": "ES",
    "tz": "Europe/Madrid",
    "longitude": -3.7038,
    "latitude": 40.4168,
    "hoursTemplate": "europe-spain",
    "holidaysRef": "bme-madrid",
    "hemisphere": "NE",
    "marketstack": {
      "benchmark": "ibex_35",
      "indexName": "IBEX 35"
    },
    "hoverColor": "#FCD34D"
  },
  {
    "id": "borsa-italiana-milan",
    "city": "Milan",
    "exchange": "Borsa Italiana (Milan)",
    "country": "Italy",
    "iso2": "IT",
    "tz": "Europe/Rome",
    "longitude": 9.19,
    "latitude": 45.4642,
    "hoursTemplate": "europe-italy",
    "holidaysRef": "borsa-italiana-milan",
    "hemisphere": "NE",
    "marketstack": {
      "benchmark": "ftse_mib",
      "indexName": "FTSE MIB"
    },
    "hoverColor": "#34D399"
  },
  {
    "id": "bse-mumbai",
    "city": "Mumbai",
    "exchange": "Bombay Stock Exchange (BSE)",
    "country": "India",
    "iso2": "IN",
    "tz": "Asia/Kolkata",
    "longitude": 72.8777,
    "latitude": 19.076,
    "hoursTemplate": "asia-india",
    "holidaysRef": "bse-mumbai",
    "hemisphere": "NE",
    "marketstack": {
      "benchmark": "sensex",
      "indexName": "SENSEX"
    },
    "hoverColor": "#F97316"
  },
  {
    "id": "budapest-bet",
    "city": "Budapest",
    "exchange": "Budapest Stock Exchange (BÉT)",
    "country": "Hungary",
    "iso2": "HU",
    "tz": "Europe/Budapest",
    "longitude": 19.0402,
    "latitude": 47.4979,
    "hoursTemplate": "europe-hungary",
    "holidaysRef": "budapest-bet",
    "hemisphere": "NE",
    "marketstack": {
      "benchmark": "bux",
      "indexName": "BUX"
    },
    "hoverColor": "#A78BFA"
  },
  {
    "id": "bursa-kuala-lumpur",
    "city": "Kuala Lumpur",
    "exchange": "Bursa Malaysia",
    "country": "Malaysia",
    "iso2": "MY",
    "tz": "Asia/Kuala_Lumpur",
    "longitude": 101.6869,
    "latitude": 3.139,
    "hoursTemplate": "asia-malaysia",
    "holidaysRef": "bursa-kuala-lumpur",
    "hemisphere": "NE",
    "marketstack": {
      "benchmark": "klci",
      "indexName": "KLCI"
    },
    "hoverColor": "#FBBF24"
  },
  {
    "id": "cboe-chicago",
    "city": "Chicago",
    "exchange": "Cboe Global Markets",
    "country": "United States",
    "iso2": "US",
    "tz": "America/Chicago",
    "longitude": -87.6298,
    "latitude": 41.8781,
    "hoursTemplate": "americas-us",
    "holidaysRef": "cboe-chicago",
    "hemisphere": "NW",
    "ribbonLabel": "Cboe Chicago",
    "marketstack": {
      "benchmark": "djia",
      "indexName": "Dow Jones"
    },
    "hoverColor": "#3B82F6"
  },
  {
    "id": "cse-colombo",
    "city": "Colombo",
    "exchange": "Colombo Stock Exchange (CSE)",
    "country": "Sri Lanka",
    "iso2": "LK",
    "tz": "Asia/Colombo",
    "longitude": 79.8612,
    "latitude": 6.9271,
    "hoursTemplate": "asia-srilanka",
    "holidaysRef": "cse-colombo",
    "hemisphere": "NE",
    "marketstack": {
      "benchmark": "aspi",
      "indexName": "CSE All Share"
    },
    "hoverColor": "#FB923C"
  },
  {
    "id": "dfm-dubai",
    "city": "Dubai",
    "exchange": "Dubai Financial Market (DFM)",
    "country": "United Arab Emirates",
    "iso2": "AE",
    "tz": "Asia/Dubai",
    "longitude": 55.2708,
    "latitude": 25.2048,
    "hoursTemplate": "gulf-uae",
    "holidaysRef": "dfm-dubai",
    "hemisphere": "NE",
    "ribbonLabel": "DFM Dubai",
    "marketstack": {
      "benchmark": "dfm_general",
      "indexName": "DFM General"
    },
    "hoverColor": "#FFD700"
  },
  {
    "id": "egx-cairo",
    "city": "Cairo",
    "exchange": "Egyptian Exchange (EGX)",
    "country": "Egypt",
    "iso2": "EG",
    "tz": "Africa/Cairo",
    "longitude": 31.2357,
    "latitude": 30.0444,
    "hoursTemplate": "africa-standard",
    "holidaysRef": "egx-cairo",
    "hemisphere": "NE",
    "marketstack": {
      "benchmark": "egx_30",
      "indexName": "EGX 30"
    },
    "hoverColor": "#C4A35A"
  },
  {
    "id": "euronext-amsterdam",
    "city": "Amsterdam",
    "exchange": "Euronext Amsterdam",
    "country": "Netherlands",
    "iso2": "NL",
    "tz": "Europe/Amsterdam",
    "longitude": 4.9041,
    "latitude": 52.3676,
    "hoursTemplate": "europe-euronext",
    "holidaysRef": "euronext-amsterdam",
    "hemisphere": "NE",
    "marketstack": {
      "benchmark": "aex",
      "indexName": "AEX"
    },
    "hoverColor": "#F472B6"
  },
  {
    "id": "euronext-brussels",
    "city": "Brussels",
    "exchange": "Euronext Brussels",
    "country": "Belgium",
    "iso2": "BE",
    "tz": "Europe/Brussels",
    "longitude": 4.3517,
    "latitude": 50.8503,
    "hoursTemplate": "europe-euronext",
    "holidaysRef": "euronext-brussels",
    "hemisphere": "NE",
    "marketstack": {
      "benchmark": "bel_20",
      "indexName": "BEL 20"
    },
    "hoverColor": "#818CF8"
  },
  {
    "id": "euronext-lisbon",
    "city": "Lisbon",
    "exchange": "Euronext Lisbon",
    "country": "Portugal",
    "iso2": "PT",
    "tz": "Europe/Lisbon",
    "longitude": -9.1393,
    "latitude": 38.7223,
    "hoursTemplate": "europe-euronext",
    "holidaysRef": "euronext-lisbon",
    "hemisphere": "NE",
    "marketstack": {
      "benchmark": "psi_20",
      "indexName": "PSI 20"
    },
    "hoverColor": "#2DD4BF"
  },
  {
    "id": "euronext-paris",
    "city": "Paris",
    "exchange": "Euronext Paris",
    "country": "France",
    "iso2": "FR",
    "tz": "Europe/Paris",
    "longitude": 2.3522,
    "latitude": 48.8566,
    "hoursTemplate": "europe-euronext",
    "holidaysRef": "euronext-paris",
    "hemisphere": "NE",
    "marketstack": {
      "benchmark": "cac_40",
      "indexName": "CAC 40"
    },
    "hoverColor": "#6366F1"
  },
  {
    "id": "gpw-warsaw",
    "city": "Warsaw",
    "exchange": "Warsaw Stock Exchange (GPW)",
    "country": "Poland",
    "iso2": "PL",
    "tz": "Europe/Warsaw",
    "longitude": 21.0122,
    "latitude": 52.2297,
    "hoursTemplate": "europe-poland",
    "holidaysRef": "gpw-warsaw",
    "hemisphere": "NE",
    "marketstack": {
      "benchmark": "wig_20",
      "indexName": "WIG 20"
    },
    "hoverColor": "#DC2626"
  },
  {
    "id": "hkex-hong-kong",
    "city": "Hong Kong",
    "exchange": "Hong Kong Exchanges & Clearing (HKEX)",
    "country": "Hong Kong",
    "iso2": "HK",
    "tz": "Asia/Hong_Kong",
    "longitude": 114.1694,
    "latitude": 22.3193,
    "hoursTemplate": "asia-hk",
    "holidaysRef": "hkex-hong-kong",
    "hemisphere": "NE",
    "ribbonLabel": "HKEX",
    "marketstack": {
      "benchmark": "hang_seng",
      "indexName": "Hang Seng"
    },
    "hoverColor": "#FF3B5C"
  },
  {
    "id": "idx-jakarta",
    "city": "Jakarta",
    "exchange": "Indonesia Stock Exchange (IDX)",
    "country": "Indonesia",
    "iso2": "ID",
    "tz": "Asia/Jakarta",
    "longitude": 106.8456,
    "latitude": -6.2088,
    "hoursTemplate": "asia-indonesia",
    "holidaysRef": "idx-jakarta",
    "hemisphere": "SE",
    "marketstack": {
      "benchmark": "idx_composite",
      "indexName": "IDX Composite"
    },
    "hoverColor": "#4ADE80"
  },
  {
    "id": "jse-johannesburg",
    "city": "Johannesburg",
    "exchange": "Johannesburg Stock Exchange (JSE)",
    "country": "South Africa",
    "iso2": "ZA",
    "tz": "Africa/Johannesburg",
    "longitude": 28.0473,
    "latitude": -26.2041,
    "hoursTemplate": "africa-standard",
    "holidaysRef": "jse-johannesburg",
    "hemisphere": "SE",
    "ribbonLabel": "JSE",
    "marketstack": {
      "benchmark": "jse_all_share",
      "indexName": "JSE All Share"
    },
    "hoverColor": "#F59E0B"
  },
  {
    "id": "krx-seoul",
    "city": "Seoul",
    "exchange": "Korea Exchange (KRX)",
    "country": "South Korea",
    "iso2": "KR",
    "tz": "Asia/Seoul",
    "longitude": 126.978,
    "latitude": 37.5665,
    "hoursTemplate": "asia-korea",
    "holidaysRef": "krx-seoul",
    "hemisphere": "NE",
    "marketstack": {
      "benchmark": "kospi",
      "indexName": "KOSPI"
    },
    "hoverColor": "#EC4899"
  },
  {
    "id": "lse-london",
    "city": "London",
    "exchange": "London Stock Exchange (LSE)",
    "country": "United Kingdom",
    "iso2": "GB",
    "tz": "Europe/London",
    "longitude": -0.1276,
    "latitude": 51.5074,
    "hoursTemplate": "europe-uk",
    "holidaysRef": "lse-london",
    "hemisphere": "NE",
    "ribbonLabel": "LSE London",
    "marketstack": {
      "benchmark": "ftse_100",
      "indexName": "FTSE 100"
    },
    "hoverColor": "#8B5CF6"
  },
  {
    "id": "moex-moscow",
    "city": "Moscow",
    "exchange": "Moscow Exchange (MOEX)",
    "country": "Russia",
    "iso2": "RU",
    "tz": "Europe/Moscow",
    "longitude": 37.6173,
    "latitude": 55.7558,
    "hoursTemplate": "europe-russia",
    "holidaysRef": "moex-moscow",
    "hemisphere": "NE",
    "marketstack": {
      "benchmark": "moex",
      "indexName": "MOEX"
    },
    "hoverColor": "#EF4444"
  },
  {
    "id": "nasdaq-copenhagen",
    "city": "Copenhagen",
    "exchange": "Nasdaq Copenhagen",
    "country": "Denmark",
    "iso2": "DK",
    "tz": "Europe/Copenhagen",
    "longitude": 12.5683,
    "latitude": 55.6761,
    "hoursTemplate": "europe-nordic",
    "holidaysRef": "nasdaq-copenhagen",
    "hemisphere": "NE",
    "marketstack": {
      "benchmark": "omx_copenhagen_20",
      "indexName": "OMX Copenhagen"
    },
    "hoverColor": "#38BDF8"
  },
  {
    "id": "nasdaq-helsinki",
    "city": "Helsinki",
    "exchange": "Nasdaq Helsinki",
    "country": "Finland",
    "iso2": "FI",
    "tz": "Europe/Helsinki",
    "longitude": 24.9384,
    "latitude": 60.1699,
    "hoursTemplate": "europe-nordic",
    "holidaysRef": "nasdaq-helsinki",
    "hemisphere": "NE",
    "marketstack": {
      "benchmark": "omx_helsinki_25",
      "indexName": "OMX Helsinki"
    },
    "hoverColor": "#0EA5E9"
  },
  {
    "id": "nasdaq-new-york",
    "city": "New York",
    "exchange": "NASDAQ",
    "country": "United States",
    "iso2": "US",
    "tz": "America/New_York",
    "longitude": -74.006,
    "latitude": 40.7128,
    "hoursTemplate": "americas-us",
    "holidaysRef": "nasdaq-new-york",
    "hemisphere": "NW",
    "marketstack": {
      "benchmark": "nasdaq",
      "indexName": "NASDAQ"
    },
    "hoverColor": "#06B6D4"
  },
  {
    "id": "nasdaq-san-francisco",
    "city": "San Francisco",
    "exchange": "Nasdaq Private Market (SF)",
    "country": "United States",
    "iso2": "US",
    "tz": "America/Los_Angeles",
    "longitude": -122.4194,
    "latitude": 37.7749,
    "hoursTemplate": "americas-us",
    "holidaysRef": "nasdaq-san-francisco",
    "hemisphere": "NW",
    "ribbonLabel": "Russell 2000",
    "marketstack": {
      "benchmark": "russell_2000",
      "indexName": "Russell 2000"
    },
    "hoverColor": "#22D3EE"
  },
  {
    "id": "nasdaq-stockholm",
    "city": "Stockholm",
    "exchange": "Nasdaq Stockholm",
    "country": "Sweden",
    "iso2": "SE",
    "tz": "Europe/Stockholm",
    "longitude": 18.0686,
    "latitude": 59.3293,
    "hoursTemplate": "europe-nordic",
    "holidaysRef": "nasdaq-stockholm",
    "hemisphere": "NE",
    "marketstack": {
      "benchmark": "omx_stockholm_30",
      "indexName": "OMX Stockholm"
    },
    "hoverColor": "#14B8A6"
  },
  {
    "id": "nse-mumbai",
    "city": "Mumbai",
    "exchange": "National Stock Exchange of India (NSE)",
    "country": "India",
    "iso2": "IN",
    "tz": "Asia/Kolkata",
    "longitude": 72.8777,
    "latitude": 19.076,
    "hoursTemplate": "asia-india",
    "holidaysRef": "nse-mumbai",
    "hemisphere": "NE",
    "ribbonLabel": "NSE India",
    "marketstack": {
      "benchmark": "nifty_50",
      "indexName": "NIFTY 50"
    },
    "hoverColor": "#FF8C00"
  },
  {
    "id": "nyse-new-york",
    "city": "New York",
    "exchange": "New York Stock Exchange (NYSE)",
    "country": "United States",
    "iso2": "US",
    "tz": "America/New_York",
    "longitude": -74.006,
    "latitude": 40.7128,
    "hoursTemplate": "americas-us",
    "holidaysRef": "nyse-new-york",
    "hemisphere": "NW",
    "marketstack": {
      "benchmark": "sp500",
      "indexName": "S&P 500"
    },
    "hoverColor": "#2563EB"
  },
  {
    "id": "nzx-wellington",
    "city": "Wellington",
    "exchange": "New Zealand Exchange (NZX)",
    "country": "New Zealand",
    "iso2": "NZ",
    "tz": "Pacific/Auckland",
    "longitude": 174.7762,
    "latitude": -41.2866,
    "hoursTemplate": "australasia-standard",
    "holidaysRef": "nzx-wellington",
    "hemisphere": "SE",
    "ribbonLabel": "NZX Wellington",
    "marketstack": {
      "benchmark": "nzx_50",
      "indexName": "NZX 50"
    },
    "hoverColor": "#00FF7F"
  },
  {
    "id": "pse-manila",
    "city": "Manila",
    "exchange": "Philippine Stock Exchange (PSE)",
    "country": "Philippines",
    "iso2": "PH",
    "tz": "Asia/Manila",
    "longitude": 120.9842,
    "latitude": 14.5995,
    "hoursTemplate": "asia-philippines",
    "holidaysRef": "pse-manila",
    "hemisphere": "NE",
    "marketstack": {
      "benchmark": "psei",
      "indexName": "PSEi"
    },
    "hoverColor": "#FF7F50"
  },
  {
    "id": "qse-doha",
    "city": "Doha",
    "exchange": "Qatar Stock Exchange (QSE)",
    "country": "Qatar",
    "iso2": "QA",
    "tz": "Asia/Qatar",
    "longitude": 51.531,
    "latitude": 25.2854,
    "hoursTemplate": "gulf-qatar",
    "holidaysRef": "qse-doha",
    "hemisphere": "NE",
    "marketstack": {
      "benchmark": "qe_general",
      "indexName": "QE General"
    },
    "hoverColor": "#8B008B"
  },
  {
    "id": "set-bangkok",
    "city": "Bangkok",
    "exchange": "Stock Exchange of Thailand (SET)",
    "country": "Thailand",
    "iso2": "TH",
    "tz": "Asia/Bangkok",
    "longitude": 100.5018,
    "latitude": 13.7563,
    "hoursTemplate": "asia-thailand",
    "holidaysRef": "set-bangkok",
    "hemisphere": "NE",
    "ribbonLabel": "SET Bangkok",
    "marketstack": {
      "benchmark": "set",
      "indexName": "SET"
    },
    "hoverColor": "#D946EF"
  },
  {
    "id": "sgx-singapore",
    "city": "Singapore",
    "exchange": "Singapore Exchange (SGX)",
    "country": "Singapore",
    "iso2": "SG",
    "tz": "Asia/Singapore",
    "longitude": 103.8198,
    "latitude": 1.3521,
    "hoursTemplate": "asia-singapore",
    "holidaysRef": "sgx-singapore",
    "hemisphere": "NE",
    "marketstack": {
      "benchmark": "sti",
      "indexName": "Straits Times"
    },
    "hoverColor": "#E879F9"
  },
  {
    "id": "six-zurich",
    "city": "Zurich",
    "exchange": "SIX Swiss Exchange",
    "country": "Switzerland",
    "iso2": "CH",
    "tz": "Europe/Zurich",
    "longitude": 8.5417,
    "latitude": 47.3769,
    "hoursTemplate": "europe-switzerland",
    "holidaysRef": "six-zurich",
    "hemisphere": "NE",
    "marketstack": {
      "benchmark": "smi",
      "indexName": "SMI"
    },
    "hoverColor": "#C084FC"
  },
  {
    "id": "sse-santiago",
    "city": "Santiago",
    "exchange": "Santiago Stock Exchange",
    "country": "Chile",
    "iso2": "CL",
    "tz": "America/Santiago",
    "longitude": -70.6693,
    "latitude": -33.4489,
    "hoursTemplate": "latam-chile",
    "holidaysRef": "sse-santiago",
    "hemisphere": "SW",
    "marketstack": {
      "benchmark": "ipsa",
      "indexName": "IPSA"
    },
    "hoverColor": "#00CED1"
  },
  {
    "id": "sse-shanghai",
    "city": "Shanghai",
    "exchange": "Shanghai Stock Exchange (SSE)",
    "country": "China",
    "iso2": "CN",
    "tz": "Asia/Shanghai",
    "longitude": 121.4737,
    "latitude": 31.2304,
    "hoursTemplate": "asia-china",
    "holidaysRef": "sse-shanghai",
    "hemisphere": "NE",
    "marketstack": {
      "benchmark": "shanghai_composite",
      "indexName": "SSE Composite"
    },
    "hoverColor": "#FF1493"
  },
  {
    "id": "szse-shenzhen",
    "city": "Shenzhen",
    "exchange": "Shenzhen Stock Exchange (SZSE)",
    "country": "China",
    "iso2": "CN",
    "tz": "Asia/Shanghai",
    "longitude": 114.0579,
    "latitude": 22.5431,
    "hoursTemplate": "asia-china",
    "holidaysRef": "szse-shenzhen",
    "hemisphere": "NE",
    "marketstack": {
      "benchmark": "szse_component",
      "indexName": "SZSE Component"
    },
    "hoverColor": "#FF69B4"
  },
  {
    "id": "tadawul-riyadh",
    "city": "Riyadh",
    "exchange": "Saudi Exchange (Tadawul)",
    "country": "Saudi Arabia",
    "iso2": "SA",
    "tz": "Asia/Riyadh",
    "longitude": 46.6753,
    "latitude": 24.7136,
    "hoursTemplate": "gulf-saudi",
    "holidaysRef": "tadawul-riyadh",
    "hemisphere": "NE",
    "ribbonLabel": "Tadawul",
    "marketstack": {
      "benchmark": "tadawul",
      "indexName": "TASI"
    },
    "hoverColor": "#DAA520"
  },
  {
    "id": "tase-tel-aviv",
    "city": "Tel Aviv",
    "exchange": "Tel Aviv Stock Exchange (TASE)",
    "country": "Israel",
    "iso2": "IL",
    "tz": "Asia/Jerusalem",
    "longitude": 34.7818,
    "latitude": 32.0853,
    "hoursTemplate": "gulf-israel",
    "holidaysRef": "tase-tel-aviv",
    "hemisphere": "NE",
    "marketstack": {
      "benchmark": "ta_35",
      "indexName": "TA-35"
    },
    "hoverColor": "#00BFFF"
  },
  {
    "id": "tse-tokyo",
    "city": "Tokyo",
    "exchange": "Tokyo Stock Exchange (TSE)",
    "country": "Japan",
    "iso2": "JP",
    "tz": "Asia/Tokyo",
    "longitude": 139.6503,
    "latitude": 35.6762,
    "hoursTemplate": "asia-tokyo",
    "holidaysRef": "tse-tokyo",
    "hemisphere": "NE",
    "ribbonLabel": "Tokyo (TSE)",
    "marketstack": {
      "benchmark": "nikkei_225",
      "indexName": "Nikkei 225"
    },
    "hoverColor": "#FF4500"
  },
  {
    "id": "tsx-toronto",
    "city": "Toronto",
    "exchange": "Toronto Stock Exchange (TSX)",
    "country": "Canada",
    "iso2": "CA",
    "tz": "America/Toronto",
    "longitude": -79.3832,
    "latitude": 43.6532,
    "hoursTemplate": "americas-us",
    "holidaysRef": "tsx-toronto",
    "hemisphere": "NW",
    "marketstack": {
      "benchmark": "tsx",
      "indexName": "TSX Composite"
    },
    "hoverColor": "#7B68EE"
  },
  {
    "id": "twse-taipei",
    "city": "Taipei",
    "exchange": "Taiwan Stock Exchange (TWSE)",
    "country": "Taiwan",
    "iso2": "TW",
    "tz": "Asia/Taipei",
    "longitude": 121.5654,
    "latitude": 25.033,
    "hoursTemplate": "asia-taiwan",
    "holidaysRef": "twse-taipei",
    "hemisphere": "NE",
    "marketstack": {
      "benchmark": "taiex",
      "indexName": "TAIEX"
    },
    "hoverColor": "#9370DB"
  }
]
