[
  {
    "id": "adx-abu-dhabi",
    "city": "Abu Dhabi",
    "exchange": "Abu Dhabi Securities Exchange (ADX)",
    "country": "United Arab Emirates",
    "iso2": "AE",
    "tz": "Asia/Dubai",
    "longitude": 54.3773,
    "hoursTemplate": "gulf-uae",
    "holidaysRef": "adx-abu-dhabi",
    "latitude": 24.4539,
    "hemisphere": "NE"
  },
  {
    "id": "ase-amman",
    "city": "Amman",
    "exchange": "Amman Stock Exchange (ASE)",
    "country": "Jordan",
    "iso2": "JO",
    "tz": "Asia/Amman",
    "longitude": 35.9106,
    "hoursTemplate": "gulf-jordan",
    "holidaysRef": "ase-amman",
    "latitude": 31.9454,
    "hemisphere": "NE"
  },
  {
    "id": "asx-clear-sydney",
    "city": "Sydney",
    "exchange": "ASX Clear",
    "country": "Australia",
    "iso2": "AU",
    "tz": "Australia/Sydney",
    "longitude": 151.2093,
    "hoursTemplate": "australia-standard",
    "holidaysRef": "asx-clear-sydney",
    "latitude": -33.8688,
    "hemisphere": "SE"
  },
  {
    "id": "asx-settlement-sydney",
    "city": "Sydney",
    "exchange": "ASX Settlement",
    "country": "Australia",
    "iso2": "AU",
    "tz": "Australia/Sydney",
    "longitude": 151.2093,
    "hoursTemplate": "australia-standard",
    "holidaysRef": "asx-settlement-sydney",
    "latitude": -33.8688,
    "hemisphere": "SE"
  },
  {
    "id": "asx-sydney",
    "city": "Sydney",
    "exchange": "Australian Securities Exchange (ASX)",
    "country": "Australia",
    "iso2": "AU",
    "tz": "Australia/Sydney",
    "longitude": 151.2093,
    "hoursTemplate": "australia-standard",
    "holidaysRef": "asx-sydney",
    "latitude": -33.8688,
    "hemisphere": "SE"
  },
  {
    "id": "athens-en-ae",
    "city": "Athens",
    "exchange": "ATHEX Alternative Market (EN.A)",
    "country": "Greece",
    "iso2": "GR",
    "tz": "Europe/Athens",
    "longitude": 23.7275,
    "hoursTemplate": "europe-greece",
    "holidaysRef": "athens-en-ae",
    "latitude": 37.9838,
    "hemisphere": "NE"
  },
  {
    "id": "athex-athens",
    "city": "Athens",
    "exchange": "Athens Stock Exchange (ATHEX)",
    "country": "Greece",
    "iso2": "GR",
    "tz": "Europe/Athens",
    "longitude": 23.7275,
    "hoursTemplate": "europe-greece",
    "holidaysRef": "athex-athens",
    "latitude": 37.9838,
    "hemisphere": "NE"
  },
  {
    "id": "b3-sao-paulo",
    "city": "São Paulo",
    "exchange": "B3 — Brasil Bolsa Balcão",
    "country": "Brazil",
    "iso2": "BR",
    "tz": "America/Sao_Paulo",
    "longitude": -46.6333,
    "hoursTemplate": "americas-brazil",
    "holidaysRef": "b3-sao-paulo",
    "latitude": -23.5505,
    "hemisphere": "SW"
  },
  {
    "id": "bcba-buenos-aires",
    "city": "Buenos Aires",
    "exchange": "Bolsa de Comercio de Buenos Aires (BCBA)",
    "country": "Argentina",
    "iso2": "AR",
    "tz": "America/Argentina/Buenos_Aires",
    "longitude": -58.3816,
    "hoursTemplate": "latam-argentina",
    "holidaysRef": "bcba-buenos-aires",
    "latitude": -34.6037,
    "hemisphere": "SW"
  },
  {
    "id": "bel-belgrade",
    "city": "Belgrade",
    "exchange": "Belgrade Stock Exchange (BELEX)",
    "country": "Serbia",
    "iso2": "RS",
    "tz": "Europe/Belgrade",
    "longitude": 20.4489,
    "hoursTemplate": "europe-euronext",
    "holidaysRef": "bel-belgrade",
    "latitude": 44.7866,
    "hemisphere": "NE"
  },
  {
    "id": "bhb-manama",
    "city": "Manama",
    "exchange": "Bahrain Bourse (BHB)",
    "country": "Bahrain",
    "iso2": "BH",
    "tz": "Asia/Bahrain",
    "longitude": 50.586,
    "hoursTemplate": "gulf-bahrain",
    "holidaysRef": "bhb-manama",
    "latitude": 26.2285,
    "hemisphere": "NE"
  },
  {
    "id": "bist-istanbul",
    "city": "Istanbul",
    "exchange": "Borsa Istanbul (BIST)",
    "country": "Türkiye",
    "iso2": "TR",
    "tz": "Europe/Istanbul",
    "longitude": 28.9784,
    "hoursTemplate": "europe-turkey",
    "holidaysRef": "bist-istanbul",
    "latitude": 41.0082,
    "hemisphere": "NE"
  },
  {
    "id": "bisx-nassau",
    "city": "Nassau",
    "exchange": "Bahamas International Securities Exchange (BISX)",
    "country": "Bahamas",
    "iso2": "BS",
    "tz": "America/Nassau",
    "longitude": -77.3963,
    "hoursTemplate": "americas-us",
    "holidaysRef": "bisx-nassau",
    "latitude": 25.0343,
    "hemisphere": "NW"
  },
  {
    "id": "biva-mexico-city",
    "city": "Mexico City",
    "exchange": "Bolsa Institucional de Valores (BIVA)",
    "country": "Mexico",
    "iso2": "MX",
    "tz": "America/Mexico_City",
    "longitude": -99.1332,
    "hoursTemplate": "latam-mexico",
    "holidaysRef": "biva-mexico-city",
    "latitude": 19.4326,
    "hemisphere": "NW"
  },
  {
    "id": "bme-madrid",
    "city": "Madrid",
    "exchange": "BME Spanish Exchanges (Madrid)",
    "country": "Spain",
    "iso2": "ES",
    "tz": "Europe/Madrid",
    "longitude": -3.7038,
    "hoursTemplate": "europe-spain",
    "holidaysRef": "bme-madrid",
    "latitude": 40.4168,
    "hemisphere": "NE"
  },
  {
    "id": "bmv-mexico-city",
    "city": "Mexico City",
    "exchange": "Bolsa Mexicana de Valores (BMV)",
    "country": "Mexico",
    "iso2": "MX",
    "tz": "America/Mexico_City",
    "longitude": -99.1332,
    "hoursTemplate": "latam-mexico",
    "holidaysRef": "bmv-mexico-city",
    "latitude": 19.4326,
    "hemisphere": "NW"
  },
  {
    "id": "bodiva-luanda",
    "city": "Luanda",
    "exchange": "Bolsa de Dívida e Valores de Angola (BODIVA)",
    "country": "Angola",
    "iso2": "AO",
    "tz": "Africa/Luanda",
    "longitude": 13.2343,
    "hoursTemplate": "africa-standard",
    "holidaysRef": "bodiva-luanda",
    "latitude": -8.839,
    "hemisphere": "SE"
  },
  {
    "id": "borsa-italiana-milan",
    "city": "Milan",
    "exchange": "Borsa Italiana (Milan)",
    "country": "Italy",
    "iso2": "IT",
    "tz": "Europe/Rome",
    "longitude": 9.19,
    "hoursTemplate": "europe-italy",
    "holidaysRef": "borsa-italiana-milan",
    "latitude": 45.4642,
    "hemisphere": "NE"
  },
  {
    "id": "boursa-kuwait",
    "city": "Kuwait City",
    "exchange": "Boursa Kuwait",
    "country": "Kuwait",
    "iso2": "KW",
    "tz": "Asia/Kuwait",
    "longitude": 47.9774,
    "hoursTemplate": "gulf-kuwait",
    "holidaysRef": "boursa-kuwait",
    "latitude": 29.3759,
    "hemisphere": "NE"
  },
  {
    "id": "brvm-abidjan",
    "city": "Abidjan",
    "exchange": "BRVM (West Africa)",
    "country": "Côte d’Ivoire (UEMOA)",
    "iso2": "CI",
    "tz": "Africa/Abidjan",
    "longitude": -4.0244,
    "hoursTemplate": "africa-south",
    "holidaysRef": "brvm-abidjan",
    "latitude": 5.3453,
    "hemisphere": "NW"
  },
  {
    "id": "bse-bridgetown",
    "city": "Bridgetown",
    "exchange": "Barbados Stock Exchange (BSE)",
    "country": "Barbados",
    "iso2": "BB",
    "tz": "America/Barbados",
    "longitude": -59.5988,
    "hoursTemplate": "americas-caribbean",
    "holidaysRef": "bse-bridgetown",
    "latitude": 13.1132,
    "hemisphere": "NW"
  },
  {
    "id": "bse-gaborone",
    "city": "Gaborone",
    "exchange": "Botswana Stock Exchange (BSE)",
    "country": "Botswana",
    "iso2": "BW",
    "tz": "Africa/Gaborone",
    "longitude": 25.9201,
    "hoursTemplate": "africa-standard",
    "holidaysRef": "bse-gaborone",
    "latitude": -24.6282,
    "hemisphere": "SE"
  },
  {
    "id": "bse-mumbai",
    "city": "Mumbai",
    "exchange": "Bombay Stock Exchange (BSE)",
    "country": "India",
    "iso2": "IN",
    "tz": "Asia/Kolkata",
    "longitude": 72.8777,
    "hoursTemplate": "asia-india",
    "holidaysRef": "bse-mumbai",
    "latitude": 19.076,
    "hemisphere": "NE"
  },
  {
    "id": "bsse-bratislava",
    "city": "Bratislava",
    "exchange": "Bratislava Stock Exchange (BSSE)",
    "country": "Slovakia",
    "iso2": "SK",
    "tz": "Europe/Bratislava",
    "longitude": 17.1077,
    "hoursTemplate": "europe-euronext",
    "holidaysRef": "bsse-bratislava",
    "latitude": 48.1486,
    "hemisphere": "NE"
  },
  {
    "id": "bsx-hamilton",
    "city": "Hamilton",
    "exchange": "Bermuda Stock Exchange (BSX)",
    "country": "Bermuda",
    "iso2": "BM",
    "tz": "Atlantic/Bermuda",
    "longitude": -64.7814,
    "hoursTemplate": "europe-core",
    "holidaysRef": "bsx-hamilton",
    "latitude": 32.2949,
    "hemisphere": "NW"
  },
  {
    "id": "bucharest-bvb",
    "city": "Bucharest",
    "exchange": "Bucharest Stock Exchange (BVB)",
    "country": "Romania",
    "iso2": "RO",
    "tz": "Europe/Bucharest",
    "longitude": 26.1025,
    "hoursTemplate": "europe-romania",
    "holidaysRef": "bucharest-bvb",
    "latitude": 44.4268,
    "hemisphere": "NE"
  },
  {
    "id": "budapest-bet",
    "city": "Budapest",
    "exchange": "Budapest Stock Exchange (BÉT)",
    "country": "Hungary",
    "iso2": "HU",
    "tz": "Europe/Budapest",
    "longitude": 19.0402,
    "hoursTemplate": "europe-hungary",
    "holidaysRef": "budapest-bet",
    "latitude": 47.4979,
    "hemisphere": "NE"
  },
  {
    "id": "bursa-kuala-lumpur",
    "city": "Kuala Lumpur",
    "exchange": "Bursa Malaysia",
    "country": "Malaysia",
    "iso2": "MY",
    "tz": "Asia/Kuala_Lumpur",
    "longitude": 101.6869,
    "hoursTemplate": "asia-malaysia",
    "holidaysRef": "bursa-kuala-lumpur",
    "latitude": 3.139,
    "hemisphere": "NE"
  },
  {
    "id": "bvc-bogota",
    "city": "Bogotá",
    "exchange": "Bolsa de Valores de Colombia (BVC)",
    "country": "Colombia",
    "iso2": "CO",
    "tz": "America/Bogota",
    "longitude": -74.0721,
    "hoursTemplate": "latam-colombia",
    "holidaysRef": "bvc-bogota",
    "latitude": 4.711,
    "hemisphere": "NW"
  },
  {
    "id": "bvc-caracas",
    "city": "Caracas",
    "exchange": "Bolsa de Valores de Caracas (BVC)",
    "country": "Venezuela",
    "iso2": "VE",
    "tz": "America/Caracas",
    "longitude": -66.9036,
    "hoursTemplate": "americas-venezuela",
    "holidaysRef": "bvc-caracas",
    "latitude": 10.4806,
    "hemisphere": "NW"
  },
  {
    "id": "bvcv-montevideo",
    "city": "Montevideo",
    "exchange": "Bolsa de Valores de Montevideo (BVM)",
    "country": "Uruguay",
    "iso2": "UY",
    "tz": "America/Montevideo",
    "longitude": -56.1645,
    "hoursTemplate": "us-standard",
    "holidaysRef": "bvcv-montevideo",
    "latitude": -34.9011,
    "hemisphere": "SW"
  },
  {
    "id": "bvl-lima",
    "city": "Lima",
    "exchange": "Bolsa de Valores de Lima (BVL)",
    "country": "Peru",
    "iso2": "PE",
    "tz": "America/Lima",
    "longitude": -77.0428,
    "hoursTemplate": "latam-peru",
    "holidaysRef": "bvl-lima",
    "latitude": -12.0464,
    "hemisphere": "SW"
  },
  {
    "id": "bvmac-douala",
    "city": "Douala",
    "exchange": "BVMAC (Central Africa)",
    "country": "Cameroon (CEMAC)",
    "iso2": "CM",
    "tz": "Africa/Douala",
    "longitude": 9.7679,
    "hoursTemplate": "africa-south",
    "holidaysRef": "bvmac-douala",
    "latitude": 4.0511,
    "hemisphere": "NE"
  },
  {
    "id": "bvp-asuncion",
    "city": "Asunción",
    "exchange": "Bolsa de Valores y Productos de Asunción (BVPASA)",
    "country": "Paraguay",
    "iso2": "PY",
    "tz": "America/Asuncion",
    "longitude": -57.5759,
    "hoursTemplate": "us-standard",
    "holidaysRef": "bvp-asuncion",
    "latitude": -25.2637,
    "hemisphere": "SW"
  },
  {
    "id": "bvp-panama-city",
    "city": "Panama City",
    "exchange": "Bolsa de Valores de Panamá (BVPSI)",
    "country": "Panama",
    "iso2": "PA",
    "tz": "America/Panama",
    "longitude": -79.5199,
    "hoursTemplate": "us-standard",
    "holidaysRef": "bvp-panama-city",
    "latitude": 8.9824,
    "hemisphere": "NW"
  },
  {
    "id": "bvq-quito",
    "city": "Quito",
    "exchange": "Bolsa de Valores de Quito (BVQ)",
    "country": "Ecuador",
    "iso2": "EC",
    "tz": "America/Guayaquil",
    "longitude": -78.4678,
    "hoursTemplate": "americas-ecuador",
    "holidaysRef": "bvq-quito",
    "latitude": -0.1807,
    "hemisphere": "SW"
  },
  {
    "id": "casablanca-alt-cse",
    "city": "Casablanca",
    "exchange": "Casablanca Alternative Market",
    "country": "Morocco",
    "iso2": "MA",
    "tz": "Africa/Casablanca",
    "longitude": -7.5898,
    "hoursTemplate": "africa-morocco",
    "holidaysRef": "casablanca-alt-cse",
    "latitude": 33.5731,
    "hemisphere": "NW"
  },
  {
    "id": "cboe-chicago",
    "city": "Chicago",
    "exchange": "Cboe Global Markets",
    "country": "United States",
    "iso2": "US",
    "tz": "America/Chicago",
    "longitude": -87.6298,
    "hoursTemplate": "americas-us",
    "holidaysRef": "cboe-chicago",
    "latitude": 41.8781,
    "hemisphere": "NW"
  },
  {
    "id": "cboe-europe-amsterdam",
    "city": "Amsterdam",
    "exchange": "Cboe Europe (Amsterdam)",
    "country": "Netherlands",
    "iso2": "NL",
    "tz": "Europe/Amsterdam",
    "longitude": 4.9041,
    "hoursTemplate": "europe-euronext",
    "holidaysRef": "cboe-europe-amsterdam",
    "latitude": 52.3676,
    "hemisphere": "NE"
  },
  {
    "id": "cboe-europe-copenhagen",
    "city": "Copenhagen",
    "exchange": "Cboe Europe (Copenhagen)",
    "country": "Denmark",
    "iso2": "DK",
    "tz": "Europe/Copenhagen",
    "longitude": 12.5683,
    "hoursTemplate": "europe-nordic",
    "holidaysRef": "cboe-europe-copenhagen",
    "latitude": 55.6761,
    "hemisphere": "NE"
  },
  {
    "id": "cboe-europe-frankfurt",
    "city": "Frankfurt",
    "exchange": "Cboe Europe (Frankfurt)",
    "country": "Germany",
    "iso2": "DE",
    "tz": "Europe/Berlin",
    "longitude": 8.6821,
    "hoursTemplate": "europe-germany",
    "holidaysRef": "cboe-europe-frankfurt",
    "latitude": 50.1109,
    "hemisphere": "NE"
  },
  {
    "id": "cboe-europe-helsinki",
    "city": "Helsinki",
    "exchange": "Cboe Europe (Helsinki)",
    "country": "Finland",
    "iso2": "FI",
    "tz": "Europe/Helsinki",
    "longitude": 24.9384,
    "hoursTemplate": "europe-nordic",
    "holidaysRef": "cboe-europe-helsinki",
    "latitude": 60.1699,
    "hemisphere": "NE"
  },
  {
    "id": "cboe-europe-london",
    "city": "London",
    "exchange": "Cboe Europe (London)",
    "country": "United Kingdom",
    "iso2": "GB",
    "tz": "Europe/London",
    "longitude": -0.1276,
    "hoursTemplate": "europe-uk",
    "holidaysRef": "cboe-europe-london",
    "latitude": 51.5074,
    "hemisphere": "NE"
  },
  {
    "id": "cboe-europe-madrid",
    "city": "Madrid",
    "exchange": "Cboe Europe (Madrid)",
    "country": "Spain",
    "iso2": "ES",
    "tz": "Europe/Madrid",
    "longitude": -3.7038,
    "hoursTemplate": "europe-spain",
    "holidaysRef": "cboe-europe-madrid",
    "latitude": 40.4168,
    "hemisphere": "NE"
  },
  {
    "id": "cboe-europe-milan",
    "city": "Milan",
    "exchange": "Cboe Europe (Milan)",
    "country": "Italy",
    "iso2": "IT",
    "tz": "Europe/Rome",
    "longitude": 9.19,
    "hoursTemplate": "europe-italy",
    "holidaysRef": "cboe-europe-milan",
    "latitude": 45.4642,
    "hemisphere": "NE"
  },
  {
    "id": "cboe-europe-oslo",
    "city": "Oslo",
    "exchange": "Cboe Europe (Oslo)",
    "country": "Norway",
    "iso2": "NO",
    "tz": "Europe/Oslo",
    "longitude": 10.7522,
    "hoursTemplate": "europe-nordic",
    "holidaysRef": "cboe-europe-oslo",
    "latitude": 59.9139,
    "hemisphere": "NE"
  },
  {
    "id": "cboe-europe-paris",
    "city": "Paris",
    "exchange": "Cboe Europe (Paris)",
    "country": "France",
    "iso2": "FR",
    "tz": "Europe/Paris",
    "longitude": 2.3522,
    "hoursTemplate": "europe-euronext",
    "holidaysRef": "cboe-europe-paris",
    "latitude": 48.8566,
    "hemisphere": "NE"
  },
  {
    "id": "cboe-europe-stockholm",
    "city": "Stockholm",
    "exchange": "Cboe Europe (Stockholm)",
    "country": "Sweden",
    "iso2": "SE",
    "tz": "Europe/Stockholm",
    "longitude": 18.0686,
    "hoursTemplate": "europe-nordic",
    "holidaysRef": "cboe-europe-stockholm",
    "latitude": 59.3293,
    "hemisphere": "NE"
  },
  {
    "id": "cboe-europe-vienna",
    "city": "Vienna",
    "exchange": "Cboe Europe (Vienna)",
    "country": "Austria",
    "iso2": "AT",
    "tz": "Europe/Vienna",
    "longitude": 16.3738,
    "hoursTemplate": "europe-austria",
    "holidaysRef": "cboe-europe-vienna",
    "latitude": 48.2082,
    "hemisphere": "NE"
  },
  {
    "id": "cboe-europe-zurich",
    "city": "Zurich",
    "exchange": "Cboe Europe (Zurich)",
    "country": "Switzerland",
    "iso2": "CH",
    "tz": "Europe/Zurich",
    "longitude": 8.5417,
    "hoursTemplate": "europe-switzerland",
    "holidaysRef": "cboe-europe-zurich",
    "latitude": 47.3769,
    "hemisphere": "NE"
  },
  {
    "id": "cme-chicago",
    "city": "Chicago",
    "exchange": "CME Group",
    "country": "United States",
    "iso2": "US",
    "tz": "America/Chicago",
    "longitude": -87.6298,
    "hoursTemplate": "americas-us",
    "holidaysRef": "cme-chicago",
    "latitude": 41.8781,
    "hemisphere": "NW"
  },
  {
    "id": "cse-casablanca",
    "city": "Casablanca",
    "exchange": "Casablanca Stock Exchange",
    "country": "Morocco",
    "iso2": "MA",
    "tz": "Africa/Casablanca",
    "longitude": -7.5898,
    "hoursTemplate": "africa-morocco",
    "holidaysRef": "cse-casablanca",
    "latitude": 33.5731,
    "hemisphere": "NW"
  },
  {
    "id": "cse-colombo",
    "city": "Colombo",
    "exchange": "Colombo Stock Exchange (CSE)",
    "country": "Sri Lanka",
    "iso2": "LK",
    "tz": "Asia/Colombo",
    "longitude": 79.8612,
    "hoursTemplate": "asia-srilanka",
    "holidaysRef": "cse-colombo",
    "latitude": 6.9271,
    "hemisphere": "NE"
  },
  {
    "id": "csx-george-town",
    "city": "George Town",
    "exchange": "Cayman Islands Stock Exchange (CSX)",
    "country": "Cayman Islands",
    "iso2": "KY",
    "tz": "America/Cayman",
    "longitude": -81.3744,
    "hoursTemplate": "americas-us",
    "holidaysRef": "csx-george-town",
    "latitude": 19.2869,
    "hemisphere": "NW"
  },
  {
    "id": "csx-phnom-penh",
    "city": "Phnom Penh",
    "exchange": "Cambodia Securities Exchange (CSX)",
    "country": "Cambodia",
    "iso2": "KH",
    "tz": "Asia/Phnom_Penh",
    "longitude": 104.9282,
    "hoursTemplate": "asia-indochina",
    "holidaysRef": "csx-phnom-penh",
    "latitude": 11.5564,
    "hemisphere": "NE"
  },
  {
    "id": "dfm-dubai",
    "city": "Dubai",
    "exchange": "Dubai Financial Market (DFM)",
    "country": "United Arab Emirates",
    "iso2": "AE",
    "tz": "Asia/Dubai",
    "longitude": 55.2708,
    "hoursTemplate": "gulf-uae",
    "holidaysRef": "dfm-dubai",
    "latitude": 25.2048,
    "hemisphere": "NE"
  },
  {
    "id": "dse-dar-es-salaam",
    "city": "Dar es Salaam",
    "exchange": "Dar es Salaam Stock Exchange (DSE)",
    "country": "Tanzania",
    "iso2": "TZ",
    "tz": "Africa/Dar_es_Salaam",
    "longitude": 39.2083,
    "hoursTemplate": "africa-east",
    "holidaysRef": "dse-dar-es-salaam",
    "latitude": -6.7924,
    "hemisphere": "SE"
  },
  {
    "id": "dse-dhaka",
    "city": "Dhaka",
    "exchange": "Dhaka Stock Exchange (DSE)",
    "country": "Bangladesh",
    "iso2": "BD",
    "tz": "Asia/Dhaka",
    "longitude": 90.4125,
    "hoursTemplate": "asia-bangladesh",
    "holidaysRef": "dse-dhaka",
    "latitude": 23.8103,
    "hemisphere": "NE"
  },
  {
    "id": "ecse-basseterre",
    "city": "Basseterre",
    "exchange": "Eastern Caribbean Securities Exchange (ECSE)",
    "country": "Saint Kitts and Nevis",
    "iso2": "KN",
    "tz": "America/St_Kitts",
    "longitude": -62.7177,
    "hoursTemplate": "americas-caribbean",
    "holidaysRef": "ecse-basseterre",
    "latitude": 17.2958,
    "hemisphere": "NW"
  },
  {
    "id": "egx-cairo",
    "city": "Cairo",
    "exchange": "Egyptian Exchange (EGX)",
    "country": "Egypt",
    "iso2": "EG",
    "tz": "Africa/Cairo",
    "longitude": 31.2357,
    "hoursTemplate": "africa-standard",
    "holidaysRef": "egx-cairo",
    "latitude": 30.0444,
    "hemisphere": "NE"
  },
  {
    "id": "euronext-amsterdam",
    "city": "Amsterdam",
    "exchange": "Euronext Amsterdam",
    "country": "Netherlands",
    "iso2": "NL",
    "tz": "Europe/Amsterdam",
    "longitude": 4.9041,
    "hoursTemplate": "europe-euronext",
    "holidaysRef": "euronext-amsterdam",
    "latitude": 52.3676,
    "hemisphere": "NE"
  },
  {
    "id": "euronext-brussels",
    "city": "Brussels",
    "exchange": "Euronext Brussels",
    "country": "Belgium",
    "iso2": "BE",
    "tz": "Europe/Brussels",
    "longitude": 4.3517,
    "hoursTemplate": "europe-euronext",
    "holidaysRef": "euronext-brussels",
    "latitude": 50.8503,
    "hemisphere": "NE"
  },
  {
    "id": "euronext-dublin",
    "city": "Dublin",
    "exchange": "Euronext Dublin",
    "country": "Ireland",
    "iso2": "IE",
    "tz": "Europe/Dublin",
    "longitude": -6.2603,
    "hoursTemplate": "europe-ireland",
    "holidaysRef": "euronext-dublin",
    "latitude": 53.3498,
    "hemisphere": "NE"
  },
  {
    "id": "euronext-paris",
    "city": "Paris",
    "exchange": "Euronext Paris",
    "country": "France",
    "iso2": "FR",
    "tz": "Europe/Paris",
    "longitude": 2.3522,
    "hoursTemplate": "europe-euronext",
    "holidaysRef": "euronext-paris",
    "latitude": 48.8566,
    "hemisphere": "NE"
  },
  {
    "id": "gpw-warsaw",
    "city": "Warsaw",
    "exchange": "Warsaw Stock Exchange (GPW)",
    "country": "Poland",
    "iso2": "PL",
    "tz": "Europe/Warsaw",
    "longitude": 21.0122,
    "hoursTemplate": "europe-poland",
    "holidaysRef": "gpw-warsaw",
    "latitude": 52.2297,
    "hemisphere": "NE"
  },
  {
    "id": "gse-accra",
    "city": "Accra",
    "exchange": "Ghana Stock Exchange (GSE)",
    "country": "Ghana",
    "iso2": "GH",
    "tz": "Africa/Accra",
    "longitude": -0.187,
    "hoursTemplate": "africa-ghana",
    "holidaysRef": "gse-accra",
    "latitude": 5.6037,
    "hemisphere": "NE"
  },
  {
    "id": "hkex-hong-kong",
    "city": "Hong Kong",
    "exchange": "Hong Kong Exchanges & Clearing (HKEX)",
    "country": "Hong Kong",
    "iso2": "HK",
    "tz": "Asia/Hong_Kong",
    "longitude": 114.1694,
    "hoursTemplate": "asia-hk",
    "holidaysRef": "hkex-hong-kong",
    "latitude": 22.3193,
    "hemisphere": "NE"
  },
  {
    "id": "hnx-hanoi",
    "city": "Hanoi",
    "exchange": "Hanoi Stock Exchange (HNX)",
    "country": "Vietnam",
    "iso2": "VN",
    "tz": "Asia/Ho_Chi_Minh",
    "longitude": 105.8542,
    "hoursTemplate": "asia-vietnam",
    "holidaysRef": "hnx-hanoi",
    "latitude": 21.0285,
    "hemisphere": "NE"
  },
  {
    "id": "hose-ho-chi-minh",
    "city": "Ho Chi Minh City",
    "exchange": "Ho Chi Minh Stock Exchange (HOSE)",
    "country": "Vietnam",
    "iso2": "VN",
    "tz": "Asia/Ho_Chi_Minh",
    "longitude": 106.6297,
    "hoursTemplate": "asia-vietnam",
    "holidaysRef": "hose-ho-chi-minh",
    "latitude": 10.8231,
    "hemisphere": "NE"
  },
  {
    "id": "idx-jakarta",
    "city": "Jakarta",
    "exchange": "Indonesia Stock Exchange (IDX)",
    "country": "Indonesia",
    "iso2": "ID",
    "tz": "Asia/Jakarta",
    "longitude": 106.8456,
    "hoursTemplate": "asia-indonesia",
    "holidaysRef": "idx-jakarta",
    "latitude": -6.2088,
    "hemisphere": "SE"
  },
  {
    "id": "jse-johannesburg",
    "city": "Johannesburg",
    "exchange": "Johannesburg Stock Exchange (JSE)",
    "country": "South Africa",
    "iso2": "ZA",
    "tz": "Africa/Johannesburg",
    "longitude": 28.0473,
    "hoursTemplate": "africa-standard",
    "holidaysRef": "jse-johannesburg",
    "latitude": -26.2041,
    "hemisphere": "SE"
  },
  {
    "id": "jse-kingston",
    "city": "Kingston",
    "exchange": "Jamaica Stock Exchange (JSE)",
    "country": "Jamaica",
    "iso2": "JM",
    "tz": "America/Jamaica",
    "longitude": -76.7936,
    "hoursTemplate": "us-standard",
    "holidaysRef": "jse-kingston",
    "latitude": 17.9714,
    "hemisphere": "NW"
  },
  {
    "id": "krx-seoul",
    "city": "Seoul",
    "exchange": "Korea Exchange (KRX)",
    "country": "South Korea",
    "iso2": "KR",
    "tz": "Asia/Seoul",
    "longitude": 126.978,
    "hoursTemplate": "asia-korea",
    "holidaysRef": "krx-seoul",
    "latitude": 37.5665,
    "hemisphere": "NE"
  },
  {
    "id": "ljse-ljubljana",
    "city": "Ljubljana",
    "exchange": "Ljubljana Stock Exchange (LJSE)",
    "country": "Slovenia",
    "iso2": "SI",
    "tz": "Europe/Ljubljana",
    "longitude": 14.5058,
    "hoursTemplate": "europe-euronext",
    "holidaysRef": "ljse-ljubljana",
    "latitude": 46.0569,
    "hemisphere": "NE"
  },
  {
    "id": "lse-clearnet-london",
    "city": "London",
    "exchange": "LCH (London Clearing House)",
    "country": "United Kingdom",
    "iso2": "GB",
    "tz": "Europe/London",
    "longitude": -0.1276,
    "hoursTemplate": "europe-uk",
    "holidaysRef": "lse-clearnet-london",
    "latitude": 51.5074,
    "hemisphere": "NE"
  },
  {
    "id": "lse-group-london",
    "city": "London",
    "exchange": "LSEG (Group HQ)",
    "country": "United Kingdom",
    "iso2": "GB",
    "tz": "Europe/London",
    "longitude": -0.1276,
    "hoursTemplate": "europe-uk",
    "holidaysRef": "lse-group-london",
    "latitude": 51.5074,
    "hemisphere": "NE"
  },
  {
    "id": "lse-london",
    "city": "London",
    "exchange": "London Stock Exchange (LSE)",
    "country": "United Kingdom",
    "iso2": "GB",
    "tz": "Europe/London",
    "longitude": -0.1276,
    "hoursTemplate": "europe-uk",
    "holidaysRef": "lse-london",
    "latitude": 51.5074,
    "hemisphere": "NE"
  },
  {
    "id": "lsx-vientiane",
    "city": "Vientiane",
    "exchange": "Lao Securities Exchange (LSX)",
    "country": "Laos",
    "iso2": "LA",
    "tz": "Asia/Vientiane",
    "longitude": 102.6331,
    "hoursTemplate": "asia-indochina",
    "holidaysRef": "lsx-vientiane",
    "latitude": 17.9757,
    "hemisphere": "NE"
  },
  {
    "id": "luse-lusaka",
    "city": "Lusaka",
    "exchange": "Lusaka Stock Exchange (LuSE)",
    "country": "Zambia",
    "iso2": "ZM",
    "tz": "Africa/Lusaka",
    "longitude": 28.2871,
    "hoursTemplate": "africa-standard",
    "holidaysRef": "luse-lusaka",
    "latitude": -15.3875,
    "hemisphere": "SE"
  },
  {
    "id": "moex-moscow",
    "city": "Moscow",
    "exchange": "Moscow Exchange (MOEX)",
    "country": "Russia",
    "iso2": "RU",
    "tz": "Europe/Moscow",
    "longitude": 37.6173,
    "hoursTemplate": "europe-russia",
    "holidaysRef": "moex-moscow",
    "latitude": 55.7558,
    "hemisphere": "NE"
  },
  {
    "id": "mse-blantyre",
    "city": "Blantyre",
    "exchange": "Malawi Stock Exchange (MSE)",
    "country": "Malawi",
    "iso2": "MW",
    "tz": "Africa/Blantyre",
    "longitude": 35.0085,
    "hoursTemplate": "africa-standard",
    "holidaysRef": "mse-blantyre",
    "latitude": -15.7667,
    "hemisphere": "SE"
  },
  {
    "id": "mse-ulaanbaatar",
    "city": "Ulaanbaatar",
    "exchange": "Mongolian Stock Exchange (MSE)",
    "country": "Mongolia",
    "iso2": "MN",
    "tz": "Asia/Ulaanbaatar",
    "longitude": 106.9057,
    "hoursTemplate": "asia-mongolia",
    "holidaysRef": "mse-ulaanbaatar",
    "latitude": 47.8864,
    "hemisphere": "NE"
  },
  {
    "id": "msm-muscat",
    "city": "Muscat",
    "exchange": "Muscat Stock Exchange (MSM)",
    "country": "Oman",
    "iso2": "OM",
    "tz": "Asia/Muscat",
    "longitude": 58.5922,
    "hoursTemplate": "gulf-oman",
    "holidaysRef": "msm-muscat",
    "latitude": 23.588,
    "hemisphere": "NE"
  },
  {
    "id": "nasdaq-copenhagen",
    "city": "Copenhagen",
    "exchange": "Nasdaq Copenhagen",
    "country": "Denmark",
    "iso2": "DK",
    "tz": "Europe/Copenhagen",
    "longitude": 12.5683,
    "hoursTemplate": "europe-nordic",
    "holidaysRef": "nasdaq-copenhagen",
    "latitude": 55.6761,
    "hemisphere": "NE"
  },
  {
    "id": "nasdaq-helsinki",
    "city": "Helsinki",
    "exchange": "Nasdaq Helsinki",
    "country": "Finland",
    "iso2": "FI",
    "tz": "Europe/Helsinki",
    "longitude": 24.9384,
    "hoursTemplate": "europe-nordic",
    "holidaysRef": "nasdaq-helsinki",
    "latitude": 60.1699,
    "hemisphere": "NE"
  },
  {
    "id": "nasdaq-new-york",
    "city": "New York",
    "exchange": "NASDAQ",
    "country": "United States",
    "iso2": "US",
    "tz": "America/New_York",
    "longitude": -74.006,
    "hoursTemplate": "americas-us",
    "holidaysRef": "nasdaq-new-york",
    "latitude": 40.7128,
    "hemisphere": "NW"
  },
  {
    "id": "nasdaq-san-francisco",
    "city": "San Francisco",
    "exchange": "Nasdaq Private Market (SF)",
    "country": "United States",
    "iso2": "US",
    "tz": "America/Los_Angeles",
    "longitude": -122.4194,
    "hoursTemplate": "americas-us",
    "holidaysRef": "nasdaq-san-francisco",
    "latitude": 37.7749,
    "hemisphere": "NW"
  },
  {
    "id": "nasdaq-stockholm",
    "city": "Stockholm",
    "exchange": "Nasdaq Stockholm",
    "country": "Sweden",
    "iso2": "SE",
    "tz": "Europe/Stockholm",
    "longitude": 18.0686,
    "hoursTemplate": "europe-nordic",
    "holidaysRef": "nasdaq-stockholm",
    "latitude": 59.3293,
    "hemisphere": "NE"
  },
  {
    "id": "nepse-kathmandu",
    "city": "Kathmandu",
    "exchange": "Nepal Stock Exchange (NEPSE)",
    "country": "Nepal",
    "iso2": "NP",
    "tz": "Asia/Kathmandu",
    "longitude": 85.324,
    "hoursTemplate": "asia-nepal",
    "holidaysRef": "nepse-kathmandu",
    "latitude": 27.7172,
    "hemisphere": "NE"
  },
  {
    "id": "ngx-lagos",
    "city": "Lagos",
    "exchange": "Nigerian Exchange Group (NGX)",
    "country": "Nigeria",
    "iso2": "NG",
    "tz": "Africa/Lagos",
    "longitude": 3.3792,
    "hoursTemplate": "africa-nigeria",
    "holidaysRef": "ngx-lagos",
    "latitude": 6.5244,
    "hemisphere": "NE"
  },
  {
    "id": "nse-mumbai",
    "city": "Mumbai",
    "exchange": "National Stock Exchange of India (NSE)",
    "country": "India",
    "iso2": "IN",
    "tz": "Asia/Kolkata",
    "longitude": 72.8777,
    "hoursTemplate": "asia-india",
    "holidaysRef": "nse-mumbai",
    "latitude": 19.076,
    "hemisphere": "NE"
  },
  {
    "id": "nse-nairobi",
    "city": "Nairobi",
    "exchange": "Nairobi Securities Exchange (NSE)",
    "country": "Kenya",
    "iso2": "KE",
    "tz": "Africa/Nairobi",
    "longitude": 36.8219,
    "hoursTemplate": "africa-kenya",
    "holidaysRef": "nse-nairobi",
    "latitude": -1.2921,
    "hemisphere": "SE"
  },
  {
    "id": "nsx-windhoek",
    "city": "Windhoek",
    "exchange": "Namibian Stock Exchange (NSX)",
    "country": "Namibia",
    "iso2": "NA",
    "tz": "Africa/Windhoek",
    "longitude": 17.0858,
    "hoursTemplate": "africa-standard",
    "holidaysRef": "nsx-windhoek",
    "latitude": -22.5609,
    "hemisphere": "SE"
  },
  {
    "id": "nyse-new-york",
    "city": "New York",
    "exchange": "New York Stock Exchange (NYSE)",
    "country": "United States",
    "iso2": "US",
    "tz": "America/New_York",
    "longitude": -74.006,
    "hoursTemplate": "americas-us",
    "holidaysRef": "nyse-new-york",
    "latitude": 40.7128,
    "hemisphere": "NW"
  },
  {
    "id": "nzx-wellington",
    "city": "Wellington",
    "exchange": "New Zealand Exchange (NZX)",
    "country": "New Zealand",
    "iso2": "NZ",
    "tz": "Pacific/Auckland",
    "longitude": 174.7762,
    "hoursTemplate": "australasia-standard",
    "holidaysRef": "nzx-wellington",
    "latitude": -41.2866,
    "hemisphere": "SE"
  },
  {
    "id": "ose-osaka",
    "city": "Osaka",
    "exchange": "Osaka Exchange (OSE)",
    "country": "Japan",
    "iso2": "JP",
    "tz": "Asia/Tokyo",
    "longitude": 135.5023,
    "hoursTemplate": "asia-tokyo",
    "holidaysRef": "ose-osaka",
    "latitude": 34.6937,
    "hemisphere": "NE"
  },
  {
    "id": "oslo-bors",
    "city": "Oslo",
    "exchange": "Oslo Børs",
    "country": "Norway",
    "iso2": "NO",
    "tz": "Europe/Oslo",
    "longitude": 10.7522,
    "hoursTemplate": "europe-nordic",
    "holidaysRef": "oslo-bors",
    "latitude": 59.9139,
    "hemisphere": "NE"
  },
  {
    "id": "pngx-port-moresby",
    "city": "Port Moresby",
    "exchange": "Port Moresby Stock Exchange (PNGX)",
    "country": "Papua New Guinea",
    "iso2": "PG",
    "tz": "Pacific/Port_Moresby",
    "longitude": 147.1803,
    "hoursTemplate": "australasia-standard",
    "holidaysRef": "pngx-port-moresby",
    "latitude": -9.4438,
    "hemisphere": "SE"
  },
  {
    "id": "prague-pse",
    "city": "Prague",
    "exchange": "Prague Stock Exchange (PSE)",
    "country": "Czechia",
    "iso2": "CZ",
    "tz": "Europe/Prague",
    "longitude": 14.4378,
    "hoursTemplate": "europe-czech",
    "holidaysRef": "prague-pse",
    "latitude": 50.0755,
    "hemisphere": "NE"
  },
  {
    "id": "pse-manila",
    "city": "Manila",
    "exchange": "Philippine Stock Exchange (PSE)",
    "country": "Philippines",
    "iso2": "PH",
    "tz": "Asia/Manila",
    "longitude": 120.9842,
    "hoursTemplate": "asia-philippines",
    "holidaysRef": "pse-manila",
    "latitude": 14.5995,
    "hemisphere": "NE"
  },
  {
    "id": "psx-karachi",
    "city": "Karachi",
    "exchange": "Pakistan Stock Exchange (PSX)",
    "country": "Pakistan",
    "iso2": "PK",
    "tz": "Asia/Karachi",
    "longitude": 67.0011,
    "hoursTemplate": "asia-pakistan",
    "holidaysRef": "psx-karachi",
    "latitude": 24.8607,
    "hemisphere": "NE"
  },
  {
    "id": "qse-doha",
    "city": "Doha",
    "exchange": "Qatar Stock Exchange (QSE)",
    "country": "Qatar",
    "iso2": "QA",
    "tz": "Asia/Qatar",
    "longitude": 51.531,
    "hoursTemplate": "gulf-qatar",
    "holidaysRef": "qse-doha",
    "latitude": 25.2854,
    "hemisphere": "NE"
  },
  {
    "id": "reykjavik-nasdaq-iceland",
    "city": "Reykjavík",
    "exchange": "Nasdaq Iceland",
    "country": "Iceland",
    "iso2": "IS",
    "tz": "Atlantic/Reykjavik",
    "longitude": -21.9426,
    "hoursTemplate": "europe-iceland",
    "holidaysRef": "reykjavik-nasdaq-iceland",
    "latitude": 64.1466,
    "hemisphere": "NW"
  },
  {
    "id": "riga-nasdaq-baltic",
    "city": "Riga",
    "exchange": "Nasdaq Baltic (Riga)",
    "country": "Latvia",
    "iso2": "LV",
    "tz": "Europe/Riga",
    "longitude": 24.1052,
    "hoursTemplate": "europe-baltic",
    "holidaysRef": "riga-nasdaq-baltic",
    "latitude": 56.9496,
    "hemisphere": "NE"
  },
  {
    "id": "rse-kigali",
    "city": "Kigali",
    "exchange": "Rwanda Stock Exchange (RSE)",
    "country": "Rwanda",
    "iso2": "RW",
    "tz": "Africa/Kigali",
    "longitude": 30.0619,
    "hoursTemplate": "africa-standard",
    "holidaysRef": "rse-kigali",
    "latitude": -1.9403,
    "hemisphere": "SE"
  },
  {
    "id": "sem-port-louis",
    "city": "Port Louis",
    "exchange": "Stock Exchange of Mauritius (SEM)",
    "country": "Mauritius",
    "iso2": "MU",
    "tz": "Indian/Mauritius",
    "longitude": 57.4989,
    "hoursTemplate": "africa-mauritius",
    "holidaysRef": "sem-port-louis",
    "latitude": -20.1609,
    "hemisphere": "SE"
  },
  {
    "id": "set-bangkok",
    "city": "Bangkok",
    "exchange": "Stock Exchange of Thailand (SET)",
    "country": "Thailand",
    "iso2": "TH",
    "tz": "Asia/Bangkok",
    "longitude": 100.5018,
    "hoursTemplate": "asia-thailand",
    "holidaysRef": "set-bangkok",
    "latitude": 13.7563,
    "hemisphere": "NE"
  },
  {
    "id": "sgx-singapore",
    "city": "Singapore",
    "exchange": "Singapore Exchange (SGX)",
    "country": "Singapore",
    "iso2": "SG",
    "tz": "Asia/Singapore",
    "longitude": 103.8198,
    "hoursTemplate": "asia-singapore",
    "holidaysRef": "sgx-singapore",
    "latitude": 1.3521,
    "hemisphere": "NE"
  },
  {
    "id": "six-zurich",
    "city": "Zurich",
    "exchange": "SIX Swiss Exchange",
    "country": "Switzerland",
    "iso2": "CH",
    "tz": "Europe/Zurich",
    "longitude": 8.5417,
    "hoursTemplate": "europe-switzerland",
    "holidaysRef": "six-zurich",
    "latitude": 47.3769,
    "hemisphere": "NE"
  },
  {
    "id": "sofia-bse",
    "city": "Sofia",
    "exchange": "Bulgarian Stock Exchange (BSE)",
    "country": "Bulgaria",
    "iso2": "BG",
    "tz": "Europe/Sofia",
    "longitude": 23.3219,
    "hoursTemplate": "europe-euronext",
    "holidaysRef": "sofia-bse",
    "latitude": 42.6977,
    "hemisphere": "NE"
  },
  {
    "id": "spx-suva",
    "city": "Suva",
    "exchange": "South Pacific Stock Exchange (SPX)",
    "country": "Fiji",
    "iso2": "FJ",
    "tz": "Pacific/Fiji",
    "longitude": 178.4419,
    "hoursTemplate": "australasia-standard",
    "holidaysRef": "spx-suva",
    "latitude": -18.1416,
    "hemisphere": "SE"
  },
  {
    "id": "sse-santiago",
    "city": "Santiago",
    "exchange": "Santiago Stock Exchange",
    "country": "Chile",
    "iso2": "CL",
    "tz": "America/Santiago",
    "longitude": -70.6693,
    "hoursTemplate": "latam-chile",
    "holidaysRef": "sse-santiago",
    "latitude": -33.4489,
    "hemisphere": "SW"
  },
  {
    "id": "sse-shanghai",
    "city": "Shanghai",
    "exchange": "Shanghai Stock Exchange (SSE)",
    "country": "China",
    "iso2": "CN",
    "tz": "Asia/Shanghai",
    "longitude": 121.4737,
    "hoursTemplate": "asia-china",
    "holidaysRef": "sse-shanghai",
    "latitude": 31.2304,
    "hemisphere": "NE"
  },
  {
    "id": "szse-shenzhen",
    "city": "Shenzhen",
    "exchange": "Shenzhen Stock Exchange (SZSE)",
    "country": "China",
    "iso2": "CN",
    "tz": "Asia/Shanghai",
    "longitude": 114.0579,
    "hoursTemplate": "asia-china",
    "holidaysRef": "szse-shenzhen",
    "latitude": 22.5431,
    "hemisphere": "NE"
  },
  {
    "id": "tadawul-riyadh",
    "city": "Riyadh",
    "exchange": "Saudi Exchange (Tadawul)",
    "country": "Saudi Arabia",
    "iso2": "SA",
    "tz": "Asia/Riyadh",
    "longitude": 46.6753,
    "hoursTemplate": "gulf-saudi",
    "holidaysRef": "tadawul-riyadh",
    "latitude": 24.7136,
    "hemisphere": "NE"
  },
  {
    "id": "tallinn-nasdaq-baltic",
    "city": "Tallinn",
    "exchange": "Nasdaq Baltic (Tallinn)",
    "country": "Estonia",
    "iso2": "EE",
    "tz": "Europe/Tallinn",
    "longitude": 24.7536,
    "hoursTemplate": "europe-baltic",
    "holidaysRef": "tallinn-nasdaq-baltic",
    "latitude": 59.437,
    "hemisphere": "NE"
  },
  {
    "id": "tase-tel-aviv",
    "city": "Tel Aviv",
    "exchange": "Tel Aviv Stock Exchange (TASE)",
    "country": "Israel",
    "iso2": "IL",
    "tz": "Asia/Jerusalem",
    "longitude": 34.7818,
    "hoursTemplate": "gulf-israel",
    "holidaysRef": "tase-tel-aviv",
    "latitude": 32.0853,
    "hemisphere": "NE"
  },
  {
    "id": "tse-tehran",
    "city": "Tehran",
    "exchange": "Tehran Stock Exchange (TSE)",
    "country": "Iran",
    "iso2": "IR",
    "tz": "Asia/Tehran",
    "longitude": 51.389,
    "hoursTemplate": "asia-singapore",
    "holidaysRef": "tse-tehran",
    "latitude": 35.6892,
    "hemisphere": "NE"
  },
  {
    "id": "tse-tokyo",
    "city": "Tokyo",
    "exchange": "Tokyo Stock Exchange (TSE)",
    "country": "Japan",
    "iso2": "JP",
    "tz": "Asia/Tokyo",
    "longitude": 139.6503,
    "hoursTemplate": "asia-tokyo",
    "holidaysRef": "tse-tokyo",
    "latitude": 35.6762,
    "hemisphere": "NE"
  },
  {
    "id": "tsx-toronto",
    "city": "Toronto",
    "exchange": "Toronto Stock Exchange (TSX)",
    "country": "Canada",
    "iso2": "CA",
    "tz": "America/Toronto",
    "longitude": -79.3832,
    "hoursTemplate": "americas-us",
    "holidaysRef": "tsx-toronto",
    "latitude": 43.6532,
    "hemisphere": "NW"
  },
  {
    "id": "ttse-port-of-spain",
    "city": "Port of Spain",
    "exchange": "Trinidad & Tobago Stock Exchange (TTSE)",
    "country": "Trinidad and Tobago",
    "iso2": "TT",
    "tz": "America/Port_of_Spain",
    "longitude": -61.5086,
    "hoursTemplate": "us-standard",
    "holidaysRef": "ttse-port-of-spain",
    "latitude": 10.66,
    "hemisphere": "NW"
  },
  {
    "id": "tunis-bvmt",
    "city": "Tunis",
    "exchange": "Bourse de Tunis (BVMT)",
    "country": "Tunisia",
    "iso2": "TN",
    "tz": "Africa/Tunis",
    "longitude": 10.1815,
    "hoursTemplate": "africa-south",
    "holidaysRef": "tunis-bvmt",
    "latitude": 36.8065,
    "hemisphere": "NE"
  },
  {
    "id": "twse-taipei",
    "city": "Taipei",
    "exchange": "Taiwan Stock Exchange (TWSE)",
    "country": "Taiwan",
    "iso2": "TW",
    "tz": "Asia/Taipei",
    "longitude": 121.5654,
    "hoursTemplate": "asia-taiwan",
    "holidaysRef": "twse-taipei",
    "latitude": 25.033,
    "hemisphere": "NE"
  },
  {
    "id": "use-kampala",
    "city": "Kampala",
    "exchange": "Uganda Securities Exchange (USE)",
    "country": "Uganda",
    "iso2": "UG",
    "tz": "Africa/Kampala",
    "longitude": 32.5825,
    "hoursTemplate": "africa-east",
    "holidaysRef": "use-kampala",
    "latitude": 0.3476,
    "hemisphere": "NE"
  },
  {
    "id": "vilnius-nasdaq-baltic",
    "city": "Vilnius",
    "exchange": "Nasdaq Baltic (Vilnius)",
    "country": "Lithuania",
    "iso2": "LT",
    "tz": "Europe/Vilnius",
    "longitude": 25.2797,
    "hoursTemplate": "europe-baltic",
    "holidaysRef": "vilnius-nasdaq-baltic",
    "latitude": 54.6872,
    "hemisphere": "NE"
  },
  {
    "id": "wbag-vienna",
    "city": "Vienna",
    "exchange": "Vienna Stock Exchange (WBAG)",
    "country": "Austria",
    "iso2": "AT",
    "tz": "Europe/Vienna",
    "longitude": 16.3738,
    "hoursTemplate": "europe-austria",
    "holidaysRef": "wbag-vienna",
    "latitude": 48.2082,
    "hemisphere": "NE"
  },
  {
    "id": "wse-warsaw-newconnect",
    "city": "Warsaw",
    "exchange": "NewConnect (GPW alt market)",
    "country": "Poland",
    "iso2": "PL",
    "tz": "Europe/Warsaw",
    "longitude": 21.0122,
    "hoursTemplate": "europe-poland",
    "holidaysRef": "wse-warsaw-newconnect",
    "latitude": 52.2297,
    "hemisphere": "NE"
  },
  {
    "id": "xetra-frankfurt",
    "city": "Frankfurt",
    "exchange": "Deutsche Börse Xetra (Frankfurt)",
    "country": "Germany",
    "iso2": "DE",
    "tz": "Europe/Berlin",
    "longitude": 8.6821,
    "hoursTemplate": "europe-germany",
    "holidaysRef": "xetra-frankfurt",
    "latitude": 50.1109,
    "hemisphere": "NE"
  },
  {
    "id": "zse-harare",
    "city": "Harare",
    "exchange": "Zimbabwe Stock Exchange (ZSE)",
    "country": "Zimbabwe",
    "iso2": "ZW",
    "tz": "Africa/Harare",
    "longitude": 31.0492,
    "hoursTemplate": "africa-standard",
    "holidaysRef": "zse-harare",
    "latitude": -17.8292,
    "hemisphere": "SE"
  },
  {
    "id": "zse-zagreb",
    "city": "Zagreb",
    "exchange": "Zagreb Stock Exchange (ZSE)",
    "country": "Croatia",
    "iso2": "HR",
    "tz": "Europe/Zagreb",
    "longitude": 15.9819,
    "hoursTemplate": "europe-euronext",
    "holidaysRef": "zse-zagreb",
    "latitude": 45.815,
    "hemisphere": "NE"
  }
]
