[
  {
    "id": "nzx-wellington",
    "city": "Wellington",
    "exchange": "New Zealand Exchange (NZX)",
    "country": "New Zealand",
    "iso2": "NZ",
    "tz": "Pacific/Auckland",
    "longitude": 174.7762,
    "hoursTemplate": "australasia-standard",
    "holidaysRef": "nzx-wellington",
    "latitude": -41.2866,
    "hemisphere": "SE"
  },
  {
    "id": "asx-sydney",
    "city": "Sydney",
    "exchange": "Australian Securities Exchange (ASX)",
    "country": "Australia",
    "iso2": "AU",
    "tz": "Australia/Sydney",
    "longitude": 151.2093,
    "hoursTemplate": "australia-standard",
    "holidaysRef": "asx-sydney",
    "latitude": -33.8688,
    "hemisphere": "SE"
  },
  {
    "id": "tse-tokyo",
    "city": "Tokyo",
    "exchange": "Tokyo Stock Exchange (TSE)",
    "country": "Japan",
    "iso2": "JP",
    "tz": "Asia/Tokyo",
    "longitude": 139.6503,
    "hoursTemplate": "asia-break",
    "holidaysRef": "tse-tokyo",
    "latitude": 35.6762,
    "hemisphere": "NE"
  },
  {
    "id": "ose-osaka",
    "city": "Osaka",
    "exchange": "Osaka Exchange (OSE)",
    "country": "Japan",
    "iso2": "JP",
    "tz": "Asia/Tokyo",
    "longitude": 135.5023,
    "hoursTemplate": "asia-short",
    "holidaysRef": "ose-osaka",
    "latitude": 34.6937,
    "hemisphere": "NE"
  },
  {
    "id": "krx-seoul",
    "city": "Seoul",
    "exchange": "Korea Exchange (KRX)",
    "country": "South Korea",
    "iso2": "KR",
    "tz": "Asia/Seoul",
    "longitude": 126.978,
    "hoursTemplate": "asia-break",
    "holidaysRef": "krx-seoul",
    "latitude": 37.5665,
    "hemisphere": "NE"
  },
  {
    "id": "twse-taipei",
    "city": "Taipei",
    "exchange": "Taiwan Stock Exchange (TWSE)",
    "country": "Taiwan",
    "iso2": "TW",
    "tz": "Asia/Taipei",
    "longitude": 121.5654,
    "hoursTemplate": "asia-short",
    "holidaysRef": "twse-taipei",
    "latitude": 25.033,
    "hemisphere": "NE"
  },
  {
    "id": "hkex-hong-kong",
    "city": "Hong Kong",
    "exchange": "Hong Kong Exchanges & Clearing (HKEX)",
    "country": "Hong Kong",
    "iso2": "HK",
    "tz": "Asia/Hong_Kong",
    "longitude": 114.1694,
    "hoursTemplate": "hk-break",
    "holidaysRef": "hkex-hong-kong",
    "latitude": 22.3193,
    "hemisphere": "NE"
  },
  {
    "id": "sse-shanghai",
    "city": "Shanghai",
    "exchange": "Shanghai Stock Exchange (SSE)",
    "country": "China",
    "iso2": "CN",
    "tz": "Asia/Shanghai",
    "longitude": 121.4737,
    "hoursTemplate": "asia-break",
    "holidaysRef": "sse-shanghai",
    "latitude": 31.2304,
    "hemisphere": "NE"
  },
  {
    "id": "szse-shenzhen",
    "city": "Shenzhen",
    "exchange": "Shenzhen Stock Exchange (SZSE)",
    "country": "China",
    "iso2": "CN",
    "tz": "Asia/Shanghai",
    "longitude": 114.0579,
    "hoursTemplate": "asia-break",
    "holidaysRef": "szse-shenzhen",
    "latitude": 22.5431,
    "hemisphere": "NE"
  },
  {
    "id": "sgx-singapore",
    "city": "Singapore",
    "exchange": "Singapore Exchange (SGX)",
    "country": "Singapore",
    "iso2": "SG",
    "tz": "Asia/Singapore",
    "longitude": 103.8198,
    "hoursTemplate": "europe-core",
    "holidaysRef": "sgx-singapore",
    "latitude": 1.3521,
    "hemisphere": "NE"
  },
  {
    "id": "bursa-kuala-lumpur",
    "city": "Kuala Lumpur",
    "exchange": "Bursa Malaysia",
    "country": "Malaysia",
    "iso2": "MY",
    "tz": "Asia/Kuala_Lumpur",
    "longitude": 101.6869,
    "hoursTemplate": "europe-core",
    "holidaysRef": "bursa-kuala-lumpur",
    "latitude": 3.139,
    "hemisphere": "NE"
  },
  {
    "id": "idx-jakarta",
    "city": "Jakarta",
    "exchange": "Indonesia Stock Exchange (IDX)",
    "country": "Indonesia",
    "iso2": "ID",
    "tz": "Asia/Jakarta",
    "longitude": 106.8456,
    "hoursTemplate": "europe-core",
    "holidaysRef": "idx-jakarta",
    "latitude": -6.2088,
    "hemisphere": "SE"
  },
  {
    "id": "set-bangkok",
    "city": "Bangkok",
    "exchange": "Stock Exchange of Thailand (SET)",
    "country": "Thailand",
    "iso2": "TH",
    "tz": "Asia/Bangkok",
    "longitude": 100.5018,
    "hoursTemplate": "asia-break",
    "holidaysRef": "set-bangkok",
    "latitude": 13.7563,
    "hemisphere": "NE"
  },
  {
    "id": "pse-manila",
    "city": "Manila",
    "exchange": "Philippine Stock Exchange (PSE)",
    "country": "Philippines",
    "iso2": "PH",
    "tz": "Asia/Manila",
    "longitude": 120.9842,
    "hoursTemplate": "europe-core",
    "holidaysRef": "pse-manila",
    "latitude": 14.5995,
    "hemisphere": "NE"
  },
  {
    "id": "hose-ho-chi-minh",
    "city": "Ho Chi Minh City",
    "exchange": "Ho Chi Minh Stock Exchange (HOSE)",
    "country": "Vietnam",
    "iso2": "VN",
    "tz": "Asia/Ho_Chi_Minh",
    "longitude": 106.6297,
    "hoursTemplate": "europe-core",
    "holidaysRef": "hose-ho-chi-minh",
    "latitude": 10.8231,
    "hemisphere": "NE"
  },
  {
    "id": "bse-mumbai",
    "city": "Mumbai",
    "exchange": "Bombay Stock Exchange (BSE)",
    "country": "India",
    "iso2": "IN",
    "tz": "Asia/Kolkata",
    "longitude": 72.8777,
    "hoursTemplate": "india-nse",
    "holidaysRef": "bse-mumbai",
    "latitude": 19.076,
    "hemisphere": "NE"
  },
  {
    "id": "nse-mumbai",
    "city": "Mumbai",
    "exchange": "National Stock Exchange of India (NSE)",
    "country": "India",
    "iso2": "IN",
    "tz": "Asia/Kolkata",
    "longitude": 72.8777,
    "hoursTemplate": "india-nse",
    "holidaysRef": "nse-mumbai",
    "latitude": 19.076,
    "hemisphere": "NE"
  },
  {
    "id": "dse-dhaka",
    "city": "Dhaka",
    "exchange": "Dhaka Stock Exchange (DSE)",
    "country": "Bangladesh",
    "iso2": "BD",
    "tz": "Asia/Dhaka",
    "longitude": 90.4125,
    "hoursTemplate": "europe-core",
    "holidaysRef": "dse-dhaka",
    "latitude": 23.8103,
    "hemisphere": "NE"
  },
  {
    "id": "psx-karachi",
    "city": "Karachi",
    "exchange": "Pakistan Stock Exchange (PSX)",
    "country": "Pakistan",
    "iso2": "PK",
    "tz": "Asia/Karachi",
    "longitude": 67.0011,
    "hoursTemplate": "europe-core",
    "holidaysRef": "psx-karachi",
    "latitude": 24.8607,
    "hemisphere": "NE"
  },
  {
    "id": "cse-colombo",
    "city": "Colombo",
    "exchange": "Colombo Stock Exchange (CSE)",
    "country": "Sri Lanka",
    "iso2": "LK",
    "tz": "Asia/Colombo",
    "longitude": 79.8612,
    "hoursTemplate": "europe-core",
    "holidaysRef": "cse-colombo",
    "latitude": 6.9271,
    "hemisphere": "NE"
  },
  {
    "id": "dfm-dubai",
    "city": "Dubai",
    "exchange": "Dubai Financial Market (DFM)",
    "country": "United Arab Emirates",
    "iso2": "AE",
    "tz": "Asia/Dubai",
    "longitude": 55.2708,
    "hoursTemplate": "gulf-halfday",
    "holidaysRef": "dfm-dubai",
    "latitude": 25.2048,
    "hemisphere": "NE"
  },
  {
    "id": "adx-abu-dhabi",
    "city": "Abu Dhabi",
    "exchange": "Abu Dhabi Securities Exchange (ADX)",
    "country": "United Arab Emirates",
    "iso2": "AE",
    "tz": "Asia/Dubai",
    "longitude": 54.3773,
    "hoursTemplate": "europe-core",
    "holidaysRef": "adx-abu-dhabi",
    "latitude": 24.4539,
    "hemisphere": "NE"
  },
  {
    "id": "tadawul-riyadh",
    "city": "Riyadh",
    "exchange": "Saudi Exchange (Tadawul)",
    "country": "Saudi Arabia",
    "iso2": "SA",
    "tz": "Asia/Riyadh",
    "longitude": 46.6753,
    "hoursTemplate": "gulf-halfday",
    "holidaysRef": "tadawul-riyadh",
    "latitude": 24.7136,
    "hemisphere": "NE"
  },
  {
    "id": "tase-tel-aviv",
    "city": "Tel Aviv",
    "exchange": "Tel Aviv Stock Exchange (TASE)",
    "country": "Israel",
    "iso2": "IL",
    "tz": "Asia/Jerusalem",
    "longitude": 34.7818,
    "hoursTemplate": "europe-core",
    "holidaysRef": "tase-tel-aviv",
    "latitude": 32.0853,
    "hemisphere": "NE"
  },
  {
    "id": "tse-tehran",
    "city": "Tehran",
    "exchange": "Tehran Stock Exchange (TSE)",
    "country": "Iran",
    "iso2": "IR",
    "tz": "Asia/Tehran",
    "longitude": 51.389,
    "hoursTemplate": "europe-core",
    "holidaysRef": "tse-tehran",
    "latitude": 35.6892,
    "hemisphere": "NE"
  },
  {
    "id": "bist-istanbul",
    "city": "Istanbul",
    "exchange": "Borsa Istanbul (BIST)",
    "country": "Türkiye",
    "iso2": "TR",
    "tz": "Europe/Istanbul",
    "longitude": 28.9784,
    "hoursTemplate": "europe-core",
    "holidaysRef": "bist-istanbul",
    "latitude": 41.0082,
    "hemisphere": "NE"
  },
  {
    "id": "moex-moscow",
    "city": "Moscow",
    "exchange": "Moscow Exchange (MOEX)",
    "country": "Russia",
    "iso2": "RU",
    "tz": "Europe/Moscow",
    "longitude": 37.6173,
    "hoursTemplate": "europe-core",
    "holidaysRef": "moex-moscow",
    "latitude": 55.7558,
    "hemisphere": "NE"
  },
  {
    "id": "athex-athens",
    "city": "Athens",
    "exchange": "Athens Stock Exchange (ATHEX)",
    "country": "Greece",
    "iso2": "GR",
    "tz": "Europe/Athens",
    "longitude": 23.7275,
    "hoursTemplate": "europe-core",
    "holidaysRef": "athex-athens",
    "latitude": 37.9838,
    "hemisphere": "NE"
  },
  {
    "id": "gpw-warsaw",
    "city": "Warsaw",
    "exchange": "Warsaw Stock Exchange (GPW)",
    "country": "Poland",
    "iso2": "PL",
    "tz": "Europe/Warsaw",
    "longitude": 21.0122,
    "hoursTemplate": "europe-core",
    "holidaysRef": "gpw-warsaw",
    "latitude": 52.2297,
    "hemisphere": "NE"
  },
  {
    "id": "wbag-vienna",
    "city": "Vienna",
    "exchange": "Vienna Stock Exchange (WBAG)",
    "country": "Austria",
    "iso2": "AT",
    "tz": "Europe/Vienna",
    "longitude": 16.3738,
    "hoursTemplate": "europe-core",
    "holidaysRef": "wbag-vienna",
    "latitude": 48.2082,
    "hemisphere": "NE"
  },
  {
    "id": "six-zurich",
    "city": "Zurich",
    "exchange": "SIX Swiss Exchange",
    "country": "Switzerland",
    "iso2": "CH",
    "tz": "Europe/Zurich",
    "longitude": 8.5417,
    "hoursTemplate": "europe-core",
    "holidaysRef": "six-zurich",
    "latitude": 47.3769,
    "hemisphere": "NE"
  },
  {
    "id": "xetra-frankfurt",
    "city": "Frankfurt",
    "exchange": "Deutsche Börse (Xetra)",
    "country": "Germany",
    "iso2": "DE",
    "tz": "Europe/Berlin",
    "longitude": 8.6821,
    "hoursTemplate": "europe-core",
    "holidaysRef": "xetra-frankfurt",
    "latitude": 50.1109,
    "hemisphere": "NE"
  },
  {
    "id": "euronext-paris",
    "city": "Paris",
    "exchange": "Euronext Paris",
    "country": "France",
    "iso2": "FR",
    "tz": "Europe/Paris",
    "longitude": 2.3522,
    "hoursTemplate": "europe-core",
    "holidaysRef": "euronext-paris",
    "latitude": 48.8566,
    "hemisphere": "NE"
  },
  {
    "id": "euronext-amsterdam",
    "city": "Amsterdam",
    "exchange": "Euronext Amsterdam",
    "country": "Netherlands",
    "iso2": "NL",
    "tz": "Europe/Amsterdam",
    "longitude": 4.9041,
    "hoursTemplate": "europe-core",
    "holidaysRef": "euronext-amsterdam",
    "latitude": 52.3676,
    "hemisphere": "NE"
  },
  {
    "id": "euronext-brussels",
    "city": "Brussels",
    "exchange": "Euronext Brussels",
    "country": "Belgium",
    "iso2": "BE",
    "tz": "Europe/Brussels",
    "longitude": 4.3517,
    "hoursTemplate": "europe-core",
    "holidaysRef": "euronext-brussels",
    "latitude": 50.8503,
    "hemisphere": "NE"
  },
  {
    "id": "borsa-italiana-milan",
    "city": "Milan",
    "exchange": "Borsa Italiana",
    "country": "Italy",
    "iso2": "IT",
    "tz": "Europe/Rome",
    "longitude": 9.19,
    "hoursTemplate": "europe-core",
    "holidaysRef": "borsa-italiana-milan",
    "latitude": 45.4642,
    "hemisphere": "NE"
  },
  {
    "id": "bme-madrid",
    "city": "Madrid",
    "exchange": "Bolsa de Madrid (BME)",
    "country": "Spain",
    "iso2": "ES",
    "tz": "Europe/Madrid",
    "longitude": -3.7038,
    "hoursTemplate": "europe-core",
    "holidaysRef": "bme-madrid",
    "latitude": 40.4168,
    "hemisphere": "NW"
  },
  {
    "id": "lse-london",
    "city": "London",
    "exchange": "London Stock Exchange (LSE)",
    "country": "United Kingdom",
    "iso2": "GB",
    "tz": "Europe/London",
    "longitude": -0.1278,
    "hoursTemplate": "europe-uk",
    "holidaysRef": "lse-london",
    "latitude": 51.5074,
    "hemisphere": "NW"
  },
  {
    "id": "euronext-dublin",
    "city": "Dublin",
    "exchange": "Euronext Dublin",
    "country": "Ireland",
    "iso2": "IE",
    "tz": "Europe/Dublin",
    "longitude": -6.2603,
    "hoursTemplate": "europe-core",
    "holidaysRef": "euronext-dublin",
    "latitude": 53.3498,
    "hemisphere": "NW"
  },
  {
    "id": "nasdaq-stockholm",
    "city": "Stockholm",
    "exchange": "Nasdaq Stockholm",
    "country": "Sweden",
    "iso2": "SE",
    "tz": "Europe/Stockholm",
    "longitude": 18.0686,
    "hoursTemplate": "us-standard",
    "holidaysRef": "nasdaq-stockholm",
    "latitude": 59.3293,
    "hemisphere": "NE"
  },
  {
    "id": "nasdaq-copenhagen",
    "city": "Copenhagen",
    "exchange": "Nasdaq Copenhagen",
    "country": "Denmark",
    "iso2": "DK",
    "tz": "Europe/Copenhagen",
    "longitude": 12.5683,
    "hoursTemplate": "us-standard",
    "holidaysRef": "nasdaq-copenhagen",
    "latitude": 55.6761,
    "hemisphere": "NE"
  },
  {
    "id": "nasdaq-helsinki",
    "city": "Helsinki",
    "exchange": "Nasdaq Helsinki",
    "country": "Finland",
    "iso2": "FI",
    "tz": "Europe/Helsinki",
    "longitude": 24.9384,
    "hoursTemplate": "us-standard",
    "holidaysRef": "nasdaq-helsinki",
    "latitude": 60.1699,
    "hemisphere": "NE"
  },
  {
    "id": "oslo-bors",
    "city": "Oslo",
    "exchange": "Oslo Børs",
    "country": "Norway",
    "iso2": "NO",
    "tz": "Europe/Oslo",
    "longitude": 10.7522,
    "hoursTemplate": "europe-core",
    "holidaysRef": "oslo-bors",
    "latitude": 59.9139,
    "hemisphere": "NE"
  },
  {
    "id": "jse-johannesburg",
    "city": "Johannesburg",
    "exchange": "Johannesburg Stock Exchange (JSE)",
    "country": "South Africa",
    "iso2": "ZA",
    "tz": "Africa/Johannesburg",
    "longitude": 28.0473,
    "hoursTemplate": "africa-standard",
    "holidaysRef": "jse-johannesburg",
    "latitude": -26.2041,
    "hemisphere": "SE"
  },
  {
    "id": "nse-nairobi",
    "city": "Nairobi",
    "exchange": "Nairobi Securities Exchange (NSE)",
    "country": "Kenya",
    "iso2": "KE",
    "tz": "Africa/Nairobi",
    "longitude": 36.8219,
    "hoursTemplate": "india-nse",
    "holidaysRef": "nse-nairobi",
    "latitude": -1.2921,
    "hemisphere": "SE"
  },
  {
    "id": "ngx-lagos",
    "city": "Lagos",
    "exchange": "Nigerian Exchange Group (NGX)",
    "country": "Nigeria",
    "iso2": "NG",
    "tz": "Africa/Lagos",
    "longitude": 3.3792,
    "hoursTemplate": "africa-standard",
    "holidaysRef": "ngx-lagos",
    "latitude": 6.5244,
    "hemisphere": "NE"
  },
  {
    "id": "cse-casablanca",
    "city": "Casablanca",
    "exchange": "Casablanca Stock Exchange",
    "country": "Morocco",
    "iso2": "MA",
    "tz": "Africa/Casablanca",
    "longitude": -7.5898,
    "hoursTemplate": "europe-core",
    "holidaysRef": "cse-casablanca",
    "latitude": 33.5731,
    "hemisphere": "NW"
  },
  {
    "id": "egx-cairo",
    "city": "Cairo",
    "exchange": "Egyptian Exchange (EGX)",
    "country": "Egypt",
    "iso2": "EG",
    "tz": "Africa/Cairo",
    "longitude": 31.2357,
    "hoursTemplate": "europe-core",
    "holidaysRef": "egx-cairo",
    "latitude": 30.0444,
    "hemisphere": "NE"
  },
  {
    "id": "b3-sao-paulo",
    "city": "São Paulo",
    "exchange": "B3 – Brasil Bolsa Balcão",
    "country": "Brazil",
    "iso2": "BR",
    "tz": "America/Sao_Paulo",
    "longitude": -46.6333,
    "hoursTemplate": "us-standard",
    "holidaysRef": "b3-sao-paulo",
    "latitude": -23.5505,
    "hemisphere": "SW"
  },
  {
    "id": "bcba-buenos-aires",
    "city": "Buenos Aires",
    "exchange": "Bolsa de Comercio de Buenos Aires (BCBA)",
    "country": "Argentina",
    "iso2": "AR",
    "tz": "America/Argentina/Buenos_Aires",
    "longitude": -58.3816,
    "hoursTemplate": "europe-core",
    "holidaysRef": "bcba-buenos-aires",
    "latitude": -34.6037,
    "hemisphere": "SW"
  },
  {
    "id": "sse-santiago",
    "city": "Santiago",
    "exchange": "Santiago Stock Exchange",
    "country": "Chile",
    "iso2": "CL",
    "tz": "America/Santiago",
    "longitude": -70.6693,
    "hoursTemplate": "europe-core",
    "holidaysRef": "sse-santiago",
    "latitude": -33.4489,
    "hemisphere": "SW"
  },
  {
    "id": "bvl-lima",
    "city": "Lima",
    "exchange": "Bolsa de Valores de Lima (BVL)",
    "country": "Peru",
    "iso2": "PE",
    "tz": "America/Lima",
    "longitude": -77.0428,
    "hoursTemplate": "europe-core",
    "holidaysRef": "bvl-lima",
    "latitude": -12.0464,
    "hemisphere": "SW"
  },
  {
    "id": "bmv-mexico-city",
    "city": "Mexico City",
    "exchange": "Bolsa Mexicana de Valores (BMV)",
    "country": "Mexico",
    "iso2": "MX",
    "tz": "America/Mexico_City",
    "longitude": -99.1332,
    "hoursTemplate": "europe-core",
    "holidaysRef": "bmv-mexico-city",
    "latitude": 19.4326,
    "hemisphere": "NW"
  },
  {
    "id": "biva-mexico-city",
    "city": "Mexico City",
    "exchange": "Bolsa Institucional de Valores (BIVA)",
    "country": "Mexico",
    "iso2": "MX",
    "tz": "America/Mexico_City",
    "longitude": -99.1332,
    "hoursTemplate": "europe-core",
    "holidaysRef": "biva-mexico-city",
    "latitude": 19.4326,
    "hemisphere": "NW"
  },
  {
    "id": "tsx-toronto",
    "city": "Toronto",
    "exchange": "Toronto Stock Exchange (TSX)",
    "country": "Canada",
    "iso2": "CA",
    "tz": "America/Toronto",
    "longitude": -79.3832,
    "hoursTemplate": "us-standard",
    "holidaysRef": "tsx-toronto",
    "latitude": 43.6532,
    "hemisphere": "NW"
  },
  {
    "id": "nyse-new-york",
    "city": "New York",
    "exchange": "New York Stock Exchange (NYSE)",
    "country": "United States",
    "iso2": "US",
    "tz": "America/New_York",
    "longitude": -74.006,
    "hoursTemplate": "us-standard",
    "holidaysRef": "nyse-new-york",
    "latitude": 40.7128,
    "hemisphere": "NW"
  },
  {
    "id": "nasdaq-new-york",
    "city": "New York",
    "exchange": "NASDAQ",
    "country": "United States",
    "iso2": "US",
    "tz": "America/New_York",
    "longitude": -74.006,
    "hoursTemplate": "us-standard",
    "holidaysRef": "nasdaq-new-york",
    "latitude": 40.7128,
    "hemisphere": "NW"
  },
  {
    "id": "cboe-chicago",
    "city": "Chicago",
    "exchange": "Cboe Global Markets",
    "country": "United States",
    "iso2": "US",
    "tz": "America/Chicago",
    "longitude": -87.6298,
    "hoursTemplate": "us-standard",
    "holidaysRef": "cboe-chicago",
    "latitude": 41.8781,
    "hemisphere": "NW"
  },
  {
    "id": "bvc-bogota",
    "city": "Bogotá",
    "exchange": "Bolsa de Valores de Colombia (BVC)",
    "country": "Colombia",
    "iso2": "CO",
    "tz": "America/Bogota",
    "longitude": -74.0721,
    "hoursTemplate": "europe-core",
    "holidaysRef": "bvc-bogota",
    "latitude": 4.711,
    "hemisphere": "NW"
  },
  {
    "id": "jse-kingston",
    "city": "Kingston",
    "exchange": "Jamaica Stock Exchange (JSE)",
    "country": "Jamaica",
    "iso2": "JM",
    "tz": "America/Jamaica",
    "longitude": -76.7936,
    "hoursTemplate": "europe-core",
    "holidaysRef": "jse-kingston",
    "latitude": 17.9714,
    "hemisphere": "NW"
  },
  {
    "id": "bvcv-montevideo",
    "city": "Montevideo",
    "exchange": "Bolsa de Valores de Montevideo (BVM)",
    "country": "Uruguay",
    "iso2": "UY",
    "tz": "America/Montevideo",
    "longitude": -56.1645,
    "hoursTemplate": "europe-core",
    "holidaysRef": "bvcv-montevideo",
    "latitude": -34.9011,
    "hemisphere": "SW"
  },
  {
    "id": "bvp-asuncion",
    "city": "Asunción",
    "exchange": "Bolsa de Valores y Productos de Asunción (BVPASA)",
    "country": "Paraguay",
    "iso2": "PY",
    "tz": "America/Asuncion",
    "longitude": -57.5759,
    "hoursTemplate": "europe-core",
    "holidaysRef": "bvp-asuncion",
    "latitude": -25.2637,
    "hemisphere": "SW"
  },
  {
    "id": "bvp-panama-city",
    "city": "Panama City",
    "exchange": "Bolsa de Valores de Panamá (BVPSI)",
    "country": "Panama",
    "iso2": "PA",
    "tz": "America/Panama",
    "longitude": -79.5199,
    "hoursTemplate": "europe-core",
    "holidaysRef": "bvp-panama-city",
    "latitude": 8.9824,
    "hemisphere": "NW"
  },
  {
    "id": "bsx-hamilton",
    "city": "Hamilton",
    "exchange": "Bermuda Stock Exchange (BSX)",
    "country": "Bermuda",
    "iso2": "BM",
    "tz": "Atlantic/Bermuda",
    "longitude": -64.7814,
    "hoursTemplate": "europe-core",
    "holidaysRef": "bsx-hamilton",
    "latitude": 32.2949,
    "hemisphere": "NW"
  },
  {
    "id": "ttse-port-of-spain",
    "city": "Port of Spain",
    "exchange": "Trinidad & Tobago Stock Exchange (TTSE)",
    "country": "Trinidad and Tobago",
    "iso2": "TT",
    "tz": "America/Port_of_Spain",
    "longitude": -61.5086,
    "hoursTemplate": "europe-core",
    "holidaysRef": "ttse-port-of-spain",
    "latitude": 10.66,
    "hemisphere": "NW"
  },
  {
    "id": "casablanca-alt-cse",
    "city": "Casablanca",
    "exchange": "Casablanca Alternative Market",
    "country": "Morocco",
    "iso2": "MA",
    "tz": "Africa/Casablanca",
    "longitude": -7.5898,
    "hoursTemplate": "europe-core",
    "holidaysRef": "casablanca-alt-cse",
    "latitude": 33.5731,
    "hemisphere": "NW"
  },
  {
    "id": "tunis-bvmt",
    "city": "Tunis",
    "exchange": "Bourse de Tunis (BVMT)",
    "country": "Tunisia",
    "iso2": "TN",
    "tz": "Africa/Tunis",
    "longitude": 10.1815,
    "hoursTemplate": "europe-core",
    "holidaysRef": "tunis-bvmt",
    "latitude": 36.8065,
    "hemisphere": "NE"
  },
  {
    "id": "bvmac-douala",
    "city": "Douala",
    "exchange": "BVMAC (Central Africa)",
    "country": "Cameroon (CEMAC)",
    "iso2": "CM",
    "tz": "Africa/Douala",
    "longitude": 9.7679,
    "hoursTemplate": "europe-core",
    "holidaysRef": "bvmac-douala",
    "latitude": 4.0511,
    "hemisphere": "NE"
  },
  {
    "id": "brvm-abidjan",
    "city": "Abidjan",
    "exchange": "BRVM (West Africa)",
    "country": "Côte d’Ivoire (UEMOA)",
    "iso2": "CI",
    "tz": "Africa/Abidjan",
    "longitude": -4.0244,
    "hoursTemplate": "europe-core",
    "holidaysRef": "brvm-abidjan",
    "latitude": 5.3453,
    "hemisphere": "NW"
  },
  {
    "id": "wse-warsaw-newconnect",
    "city": "Warsaw",
    "exchange": "NewConnect (GPW alt market)",
    "country": "Poland",
    "iso2": "PL",
    "tz": "Europe/Warsaw",
    "longitude": 21.0122,
    "hoursTemplate": "europe-core",
    "holidaysRef": "wse-warsaw-newconnect",
    "latitude": 52.2297,
    "hemisphere": "NE"
  },
  {
    "id": "prague-pse",
    "city": "Prague",
    "exchange": "Prague Stock Exchange (PSE)",
    "country": "Czechia",
    "iso2": "CZ",
    "tz": "Europe/Prague",
    "longitude": 14.4378,
    "hoursTemplate": "europe-core",
    "holidaysRef": "prague-pse",
    "latitude": 50.0755,
    "hemisphere": "NE"
  },
  {
    "id": "budapest-bet",
    "city": "Budapest",
    "exchange": "Budapest Stock Exchange (BÉT)",
    "country": "Hungary",
    "iso2": "HU",
    "tz": "Europe/Budapest",
    "longitude": 19.0402,
    "hoursTemplate": "europe-core",
    "holidaysRef": "budapest-bet",
    "latitude": 47.4979,
    "hemisphere": "NE"
  },
  {
    "id": "bucharest-bvb",
    "city": "Bucharest",
    "exchange": "Bucharest Stock Exchange (BVB)",
    "country": "Romania",
    "iso2": "RO",
    "tz": "Europe/Bucharest",
    "longitude": 26.1025,
    "hoursTemplate": "europe-core",
    "holidaysRef": "bucharest-bvb",
    "latitude": 44.4268,
    "hemisphere": "NE"
  },
  {
    "id": "sofia-bse",
    "city": "Sofia",
    "exchange": "Bulgarian Stock Exchange (BSE)",
    "country": "Bulgaria",
    "iso2": "BG",
    "tz": "Europe/Sofia",
    "longitude": 23.3219,
    "hoursTemplate": "europe-core",
    "holidaysRef": "sofia-bse",
    "latitude": 42.6977,
    "hemisphere": "NE"
  },
  {
    "id": "athens-en-ae",
    "city": "Athens",
    "exchange": "ATHEX Alternative Market (EN.A)",
    "country": "Greece",
    "iso2": "GR",
    "tz": "Europe/Athens",
    "longitude": 23.7275,
    "hoursTemplate": "europe-core",
    "holidaysRef": "athens-en-ae",
    "latitude": 37.9838,
    "hemisphere": "NE"
  },
  {
    "id": "reykjavik-nasdaq-iceland",
    "city": "Reykjavík",
    "exchange": "Nasdaq Iceland",
    "country": "Iceland",
    "iso2": "IS",
    "tz": "Atlantic/Reykjavik",
    "longitude": -21.9426,
    "hoursTemplate": "us-standard",
    "holidaysRef": "reykjavik-nasdaq-iceland",
    "latitude": 64.1466,
    "hemisphere": "NW"
  },
  {
    "id": "vilnius-nasdaq-baltic",
    "city": "Vilnius",
    "exchange": "Nasdaq Baltic (Vilnius)",
    "country": "Lithuania",
    "iso2": "LT",
    "tz": "Europe/Vilnius",
    "longitude": 25.2797,
    "hoursTemplate": "us-standard",
    "holidaysRef": "vilnius-nasdaq-baltic",
    "latitude": 54.6872,
    "hemisphere": "NE"
  },
  {
    "id": "riga-nasdaq-baltic",
    "city": "Riga",
    "exchange": "Nasdaq Baltic (Riga)",
    "country": "Latvia",
    "iso2": "LV",
    "tz": "Europe/Riga",
    "longitude": 24.1052,
    "hoursTemplate": "us-standard",
    "holidaysRef": "riga-nasdaq-baltic",
    "latitude": 56.9496,
    "hemisphere": "NE"
  },
  {
    "id": "tallinn-nasdaq-baltic",
    "city": "Tallinn",
    "exchange": "Nasdaq Baltic (Tallinn)",
    "country": "Estonia",
    "iso2": "EE",
    "tz": "Europe/Tallinn",
    "longitude": 24.7536,
    "hoursTemplate": "us-standard",
    "holidaysRef": "tallinn-nasdaq-baltic",
    "latitude": 59.437,
    "hemisphere": "NE"
  }
]
